,comune,provincia,alt,lat,lon,superficie_media,produzione_media,prec_media,temp_media,superficie_std,produzione_std,prec_std,temp_std
0,Abano Terme,padova,45.0,45.35938697,11.78871302,18797.3125,1238952.0625,922.2375,14.874375,3957.7717420917543,271951.5867055431,272.8838797608487,0.40551150826250687
1,Abbadia Cerreto,lodi,64.0,45.31239093,9.59252482,3285.9375,200190.0,745.2999999999998,13.848124999999998,744.9752093190752,59782.324282907124,258.7880780355489,0.4569933442257848
2,Abbadia Lariana,lecco,909.0,45.90049968,9.33454921,359.375,18240.8125,1323.0625000000002,15.040625,71.88034038131242,3711.8601665247757,298.0390284845259,0.4564569165503649
3,Abbadia San Salvatore,siena,1021.5,42.8809692,11.67750649,5629.4375,213392.0625,871.051875,15.1115625,2422.478482016576,77535.63378943366,189.4306011610848,0.48429921450139407
4,Abbasanta,oristano,377.5,40.12390307,8.82102235,2500.125,103576.6875,575.68125,17.361875,2202.084644906579,93583.94608529731,158.35728051361158,1.0104600849777947
5,Abbateggio,pescara,712.0,42.22446748,14.01007278,1645.1875,71984.25,727.3375000000002,15.7225,285.8627220071433,12987.457064414113,121.50807311999202,0.31649117944528393
6,Abbiategrasso,milano,101.0,45.39857615,8.91748563,5776.1875,322345.875,819.7375000000001,15.768125000000001,2442.1657934096115,132770.57721843597,245.4266241330254,0.8747968811863321
7,Abriola,potenza,1215.5,40.50793246,15.81220103,5191.75,130815.6875,748.2312499999999,13.649999999999999,829.9411625731867,24654.08772791712,184.8539016583998,0.4445372125405621
8,Accadia,foggia,769.0,41.15811611,15.33092322,2727.0625,88686.875,486.5999999999999,17.629375,1520.766713152722,53917.15332727301,70.78063765371617,0.30771130950941633
9,Acceglio,cuneo,2173.0,44.47580767,6.99122231,19170.1875,996373.9375,978.53125,13.02875,3783.97012353868,127107.35098148005,238.41430247575332,0.4869069041750523
10,Accettura,matera,812.5,40.49150467,16.15735845,1494.4375,45672.625,604.9125,16.564375000000002,431.8425590806599,13946.850449115742,86.00545622226534,0.6058159098824221
11,Acciano,l'aquila,877.0,42.1767172,13.71834861,2152.25,82311.875,627.6375,12.88125,573.0578213990859,21152.881984495638,163.03043836453773,0.28446147952461626
12,Accumoli,rieti,1425.0,42.69478482,13.24768618,2973.375,126081.25,995.86875,13.835624999999997,1148.9059651105772,37161.537979475506,233.51380749683017,0.32653675137723814
13,Acerenza,potenza,568.0,40.79553337,15.94167632,5191.75,130815.6875,748.2312499999999,13.649999999999999,829.9411625731867,24654.08772791712,184.8539016583998,0.4445372125405621
14,Acerno,salerno,1104.0,40.738303,15.05943917,3410.75,112994.5625,1083.46875,17.98875,825.9487877586602,26821.94106564935,262.93953606295116,1.320655771450936
15,Aci Bonaccorsi,catania,358.0,37.59789361,15.10860732,763.8125,22501.875,723.6500000000001,19.65,847.7495085027573,37079.263606271,216.17983254688676,0.8790676879512737
16,Aci Castello,catania,134.5,37.5558181,15.14523329,763.8125,22501.875,723.6500000000001,19.65,847.7495085027573,37079.263606271,216.17983254688676,0.8790676879512737
17,Aci Catena,catania,182.0,37.60268159,15.14224165,763.8125,22501.875,723.6500000000001,19.65,847.7495085027573,37079.263606271,216.17983254688676,0.8790676879512737
18,Aci Sant'Antonio,catania,411.0,37.60601727,15.12585282,763.8125,22501.875,723.6500000000001,19.65,847.7495085027573,37079.263606271,216.17983254688676,0.8790676879512737
19,Acireale,catania,218.5,37.61215073,15.16628791,763.8125,22501.875,723.6500000000001,19.65,847.7495085027573,37079.263606271,216.17983254688676,0.8790676879512737
20,Acquafondata,frosinone,935.5,41.54312171,13.95216686,5194.9375,160043.5,1130.0625,15.23125,888.960101748104,36233.527709383554,282.08924326650003,0.4147268177165945
21,Acquaformosa,cosenza,871.0,39.72177269,16.09007863,7281.625,197788.75,1019.0874999999999,16.216875,2362.3275492615326,55901.76123582035,257.9193772609314,0.21632440916364526
22,Acquafredda,brescia,53.5,45.30716861,10.41190041,6047.4375,354048.75,957.6749999999998,15.284375,1029.971453892453,74817.50704258107,228.0788854760563,0.48583905085257684
23,Acquanegra Cremonese,cremona,46.0,45.16831524,9.88878548,8995.125,532520.75,736.9562500000001,14.843124999999999,1972.3539193900606,142862.93958733085,248.9312059418559,0.6920473851791755
24,Acquanegra sul Chiese,mantova,28.5,45.16049553,10.43338521,18129.0,1080452.5625,613.8375,15.516875,2010.4485734946484,147895.17723710887,189.6262600485492,0.7235350141262457
25,Acquapendente,viterbo,474.0,42.74404371,11.86505396,2724.375,105737.5,791.825,16.31125,641.903094970988,27725.863376998743,221.44243044186453,0.3910818328687727
26,Acquappesa,cosenza,481.0,39.49462453,15.95403649,7281.625,197788.75,1019.0874999999999,16.216875,2362.3275492615326,55901.76123582035,257.9193772609314,0.21632440916364526
27,Acquaro,vibo valentia,672.5,38.55558146,16.18996399,909.5,25361.0,981.625,15.75375,516.8980557131164,13613.117164460657,148.40553224189458,0.2740772397214573
28,Acquasanta Terme,ascoli piceno,1147.5,42.76912283,13.40930458,6208.375,285989.5,870.5749999999999,14.051874999999999,2270.6913447964107,100273.74176257045,135.31409140711588,0.7625677565523827
29,Acquasparta,terni,599.0,42.69062742,12.54631473,5475.4375,230072.6875,808.4749999999999,16.520625,655.1655229787355,39828.65075916875,170.19131000142164,0.26799175982356976
30,Acquaviva Collecroce,campobasso,337.5,41.86790077,14.74673587,2274.0,55048.125,801.4862500000002,13.466249999999999,952.8827839771269,41666.16920536372,175.5785707074376,0.3402327634625055
31,Acquaviva Picena,ascoli piceno,192.5,42.94473063,13.8146435,6208.375,285989.5,870.5749999999999,14.051874999999999,2270.6913447964107,100273.74176257045,135.31409140711588,0.7625677565523827
32,Acquaviva d'Isernia,isernia,888.5,41.67210928,14.14986101,829.5625,26612.0,1035.1000000000001,13.091249999999999,395.4730448041518,13550.643497635085,210.77672230743758,0.7082172453892002
33,Acquaviva delle Fonti,bari,315.0,40.89657272,16.84189135,4028.0,99657.0,581.85,17.469374999999996,1957.8944132238933,46157.1067550816,140.06418528660353,0.307125788562276
34,Acquedolci,messina,243.5,38.05636112,14.58806194,121.5625,2655.9375,842.9125,19.570624999999996,23.644502532301242,798.5804462711736,172.99818447987636,0.38606508518642296
35,Acqui Terme,alessandria,290.5,44.67660776,8.46975213,33505.125,1694910.3125,623.8125,13.59125,3816.976340420957,397170.676324712,196.27805404578473,0.46121397781651574
36,Acri,cosenza,786.0,39.48835683,16.38155051,7281.625,197788.75,1019.0874999999999,16.216875,2362.3275492615326,55901.76123582035,257.9193772609314,0.21632440916364526
37,Acuto,frosinone,678.0,41.79186612,13.17302627,5194.9375,160043.5,1130.0625,15.23125,888.960101748104,36233.527709383554,282.08924326650003,0.4147268177165945
38,Adelfia,bari,172.0,41.00183306,16.87199903,4028.0,99657.0,581.85,17.469374999999996,1957.8944132238933,46157.1067550816,140.06418528660353,0.307125788562276
39,Adrano,catania,1722.5,37.66181377,14.83268741,763.8125,22501.875,723.6500000000001,19.65,847.7495085027573,37079.263606271,216.17983254688676,0.8790676879512737
40,Adrara San Martino,bergamo,776.5,45.69819924,9.9482497,4083.25,226830.0,1129.1125000000002,14.084999999999999,467.63183524363853,33453.5271802541,304.6219862386824,0.5853318147284783
41,Adrara San Rocco,bergamo,825.5,45.71217274,9.95771458,4083.25,226830.0,1129.1125000000002,14.084999999999999,467.63183524363853,33453.5271802541,304.6219862386824,0.5853318147284783
42,Adria,rovigo,2.5,45.05465533,12.05644639,24455.5625,1599336.75,667.4187499999999,14.273125,2987.9694770585156,175797.58714024874,155.69555856970786,0.3895590455887267
43,Adro,brescia,427.0,45.62514272,9.95535378,6047.4375,354048.75,957.6749999999998,15.284375,1029.971453892453,74817.50704258107,228.0788854760563,0.48583905085257684
44,Affi,verona,289.0,45.55157835,10.77315447,15129.3125,939398.75,788.2687500000001,14.358749999999999,1565.6389417210253,172397.40928003142,223.46362483634778,0.4852748362182674
45,Affile,roma,762.5,41.8843797,13.09728573,1694.8125,56850.9375,768.801875,17.31625,700.9676377456142,30369.584796785857,200.28264828216317,0.7519297396255384
46,Agazzano,piacenza,228.0,44.94680696,9.52061417,19921.9375,1141744.1875,710.0500000000001,14.853124999999999,5087.55745544952,286383.4432873098,212.12154377463247,0.4621791680001741
47,Aggius,sassari,508.5,40.92880745,9.06392097,2458.3125,102384.125,653.6249999999999,15.894375000000002,2247.680366325841,94906.06547098732,156.89012503447546,0.5901973539983606
48,Agliana,pistoia,43.0,43.90278508,11.00653402,392.75,14863.5625,1112.8562500000003,15.341875,875.6737215805135,37820.201703972525,214.27101831947945,0.523363719924617
49,Agliano Terme,asti,212.0,44.79070477,8.25110248,8971.375,420890.6875,699.9874999999998,13.439999999999998,1079.425518505099,111863.49586987332,207.8018988524086,0.5079895012038472
50,Aglientu,sassari,317.0,41.08161989,9.11300677,2458.3125,102384.125,653.6249999999999,15.894375000000002,2247.680366325841,94906.06547098732,156.89012503447546,0.5901973539983606
51,Agliè,torino,400.0,45.36343304,7.7686,18967.5,1075820.1875,951.5749999999998,15.0475,2572.9419736947048,164744.96700302928,230.23461512118456,0.4558289152741407
52,Agna,padova,3.5,45.16977788,11.95672802,18797.3125,1238952.0625,922.2375,14.874375,3957.7717420917543,271951.5867055431,272.8838797608487,0.40551150826250687
53,Agnadello,cremona,95.5,45.44713529,9.55920587,8995.125,532520.75,736.9562500000001,14.843124999999999,1972.3539193900606,142862.93958733085,248.9312059418559,0.6920473851791755
54,Agnone,isernia,891.0,41.80610155,14.3665722,829.5625,26612.0,1035.1000000000001,13.091249999999999,395.4730448041518,13550.643497635085,210.77672230743758,0.7082172453892002
55,Agnosine,brescia,637.5,45.64771077,10.3576843,6047.4375,354048.75,957.6749999999998,15.284375,1029.971453892453,74817.50704258107,228.0788854760563,0.48583905085257684
56,Agordo,belluno,1710.5,46.28146762,12.03334539,37.8125,1771.0625,1563.2375000000002,11.48,36.47139289909284,1650.0640176974953,340.421105642213,0.5144446844251908
57,Agosta,roma,553.0,41.98200211,13.03208284,1694.8125,56850.9375,768.801875,17.31625,700.9676377456142,30369.584796785857,200.28264828216317,0.7519297396255384
58,Agra,varese,541.0,46.03408765,8.77144627,522.375,27158.1875,1608.8749999999998,13.443750000000001,147.05730175683215,7335.348828049465,389.78763363315323,0.4697499334752481
59,Agrate Conturbia,novara,315.5,45.67598127,8.55992667,1731.3125,86312.4375,884.225,14.478124999999995,674.0412172115293,28011.521132012214,296.42364165722904,0.4883198234763771
60,Agropoli,salerno,162.0,40.34962772,14.99158917,3410.75,112994.5625,1083.46875,17.98875,825.9487877586602,26821.94106564935,262.93953606295116,1.320655771450936
61,Agugliano,ancona,128.5,43.54337654,13.38580376,1177.875,43679.8125,727.2375000000001,16.845000000000002,996.0398168078757,37067.368837867354,136.93934849657592,0.6926374713128551
62,Agugliaro,vicenza,15.0,45.323978,11.5849044,6031.375,381593.625,1063.0425,14.080625,1610.3463343848327,112385.5681582382,348.58196563601314,0.6200050403020921
63,Aidomaggiore,oristano,239.0,40.17186399,8.856434,2500.125,103576.6875,575.68125,17.361875,2202.084644906579,93583.94608529731,158.35728051361158,1.0104600849777947
64,Aielli,l'aquila,1224.5,42.08021928,13.5902834,2152.25,82311.875,627.6375,12.88125,573.0578213990859,21152.881984495638,163.03043836453773,0.28446147952461626
65,Aiello Calabro,cosenza,609.0,39.11696903,16.16704573,7281.625,197788.75,1019.0874999999999,16.216875,2362.3275492615326,55901.76123582035,257.9193772609314,0.21632440916364526
66,Aiello del Friuli,udine,15.0,45.87068299,13.36246488,6895.75,342537.625,1355.8625000000002,14.64,2415.4215229092692,162604.4426141242,332.74025680701754,0.5777311947033271
67,Aiello del Sabato,avellino,501.0,40.88916045,14.81982895,4778.25,161751.8125,1205.975,15.466875,829.189765172404,50037.742893698094,260.2490486694108,0.3203689279565049
68,Aieta,cosenza,794.0,39.92835498,15.82365257,7281.625,197788.75,1019.0874999999999,16.216875,2362.3275492615326,55901.76123582035,257.9193772609314,0.21632440916364526
69,Ailano,caserta,458.0,41.39076138,14.20351931,2187.3125,78073.8125,1065.25,16.639687500000004,294.8526680112176,12796.905304115528,192.76855206870925,0.6354013659359996
70,Ailoche,biella,1083.0,45.69805689,8.22037978,270.5625,12517.9375,1291.4125,14.43375,107.79361066408342,5302.625028778987,304.06637405891064,0.4746630383756456
71,Airasca,torino,260.5,44.91688598,7.48443104,18967.5,1075820.1875,951.5749999999998,15.0475,2572.9419736947048,164744.96700302928,230.23461512118456,0.4558289152741407
72,Airola,benevento,491.0,41.06632744,14.56140691,5670.9375,207164.125,733.7375,15.363125000000002,1063.0180599751513,44366.52122471778,162.90271483311753,0.33143563980557833
73,Airuno,lecco,451.0,45.75440641,9.42246629,359.375,18240.8125,1323.0625000000002,15.040625,71.88034038131242,3711.8601665247757,298.0390284845259,0.4564569165503649
74,Aisone,cuneo,1859.5,44.31344859,7.22083358,19170.1875,996373.9375,978.53125,13.02875,3783.97012353868,127107.35098148005,238.41430247575332,0.4869069041750523
75,Ala,trento,1194.5,45.75676703,11.00475333,2774.625,115916.0625,1024.8025000000002,13.4025,2240.5244884475896,94263.90630527235,277.2811755721377,0.4346262762420139
76,Ala di Stura,torino,1878.5,45.31511014,7.30434392,18967.5,1075820.1875,951.5749999999998,15.0475,2572.9419736947048,164744.96700302928,230.23461512118456,0.4558289152741407
77,Alagna,pavia,92.0,45.16928391,8.88945222,11527.0625,614800.0,691.7624999999999,14.20375,1762.7015428502539,115834.0484198551,218.8631989013533,0.4044564253414697
78,Alagna Valsesia,vercelli,2823.5,45.85332586,7.93812982,1540.5,81477.1875,826.43125,13.579999999999998,276.7065834658318,15051.54649958491,243.22100709368559,0.4360428113538087
79,Alanno,pescara,213.5,42.29443285,13.96933279,1645.1875,71984.25,727.3375000000002,15.7225,285.8627220071433,12987.457064414113,121.50807311999202,0.31649117944528393
80,Alassio,savona,298.5,44.00803855,8.17296106,167.125,4486.0625,953.8000000000001,16.673750000000002,50.7357533369385,1428.4520511728772,341.41853103388127,0.6410083202788142
81,Alatri,frosinone,1113.0,41.72647125,13.34210735,5194.9375,160043.5,1130.0625,15.23125,888.960101748104,36233.527709383554,282.08924326650003,0.4147268177165945
82,Alba,cuneo,365.0,44.70092208,8.03569894,19170.1875,996373.9375,978.53125,13.02875,3783.97012353868,127107.35098148005,238.41430247575332,0.4869069041750523
83,Alba Adriatica,teramo,65.0,42.83459777,13.92095195,16274.0625,710729.875,813.00625,16.007499999999997,2730.2119690297554,134201.09125332528,168.71606313073252,1.1387507775335806
84,Albagiara,oristano,333.0,39.78826485,8.86062815,2500.125,103576.6875,575.68125,17.361875,2202.084644906579,93583.94608529731,158.35728051361158,1.0104600849777947
85,Albairate,milano,123.5,45.41870614,8.93517393,5776.1875,322345.875,819.7375000000001,15.768125000000001,2442.1657934096115,132770.57721843597,245.4266241330254,0.8747968811863321
86,Albanella,salerno,208.5,40.47977693,15.11515285,3410.75,112994.5625,1083.46875,17.98875,825.9487877586602,26821.94106564935,262.93953606295116,1.320655771450936
87,Albano Laziale,roma,333.0,41.72911179,12.65870332,1694.8125,56850.9375,768.801875,17.31625,700.9676377456142,30369.584796785857,200.28264828216317,0.7519297396255384
88,Albano Sant'Alessandro,bergamo,349.5,45.68645495,9.7662362,4083.25,226830.0,1129.1125000000002,14.084999999999999,467.63183524363853,33453.5271802541,304.6219862386824,0.5853318147284783
89,Albano Vercellese,vercelli,152.5,45.42511503,8.38058282,1540.5,81477.1875,826.43125,13.579999999999998,276.7065834658318,15051.54649958491,243.22100709368559,0.4360428113538087
90,Albano di Lucania,potenza,685.5,40.58299757,16.03615712,5191.75,130815.6875,748.2312499999999,13.649999999999999,829.9411625731867,24654.08772791712,184.8539016583998,0.4445372125405621
91,Albaredo d'Adige,verona,22.5,45.31738813,11.26758294,15129.3125,939398.75,788.2687500000001,14.358749999999999,1565.6389417210253,172397.40928003142,223.46362483634778,0.4852748362182674
92,Albaredo per San Marco,sondrio,1485.5,46.10292543,9.59043893,1850.875,81744.0625,999.2875,12.668749999999998,2197.994172725063,98099.43708602936,204.0056629115967,0.8827825326772158
93,Albareto,parma,1022.0,44.44581523,9.70052425,13351.3125,756325.3125,728.19375,15.3275,2498.754802396586,109179.24627981806,183.02263783022397,0.521606492802125
94,Albaretto della Torre,cuneo,565.5,44.59591514,8.06408216,19170.1875,996373.9375,978.53125,13.02875,3783.97012353868,127107.35098148005,238.41430247575332,0.4869069041750523
95,Albavilla,como,780.0,45.8010947,9.18930004,507.5,25630.3125,1352.0,15.109374999999996,90.6686274297786,4408.477994633371,367.41662455583037,0.422081646919961
96,Albenga,savona,342.5,44.04910721,8.21294718,167.125,4486.0625,953.8000000000001,16.673750000000002,50.7357533369385,1428.4520511728772,341.41853103388127,0.6410083202788142
97,Albera Ligure,alessandria,971.0,44.70091651,9.06842676,33505.125,1694910.3125,623.8125,13.59125,3816.976340420957,397170.676324712,196.27805404578473,0.46121397781651574
98,Alberobello,bari,385.0,40.78373019,17.23753495,4028.0,99657.0,581.85,17.469374999999996,1957.8944132238933,46157.1067550816,140.06418528660353,0.307125788562276
99,Alberona,foggia,620.0,41.43047911,15.1242782,2727.0625,88686.875,486.5999999999999,17.629375,1520.766713152722,53917.15332727301,70.78063765371617,0.30771130950941633
100,Albese con Cassano,como,811.5,45.79543363,9.16474347,507.5,25630.3125,1352.0,15.109374999999996,90.6686274297786,4408.477994633371,367.41662455583037,0.422081646919961
101,Albettone,vicenza,76.0,45.35832713,11.5851886,6031.375,381593.625,1063.0425,14.080625,1610.3463343848327,112385.5681582382,348.58196563601314,0.6200050403020921
102,Albi,catanzaro,902.5,39.02455692,16.59721201,1563.375,49437.1875,1069.475,17.23,449.8331357292391,15577.148481964428,256.23268461823267,0.23174698847378117
103,Albiano,trento,633.0,46.14520833,11.19376768,2774.625,115916.0625,1024.8025000000002,13.4025,2240.5244884475896,94263.90630527235,277.2811755721377,0.4346262762420139
104,Albiano d'Ivrea,torino,249.5,45.43389336,7.94914491,18967.5,1075820.1875,951.5749999999998,15.0475,2572.9419736947048,164744.96700302928,230.23461512118456,0.4558289152741407
105,Albidona,cosenza,553.0,39.92268533,16.47454413,7281.625,197788.75,1019.0874999999999,16.216875,2362.3275492615326,55901.76123582035,257.9193772609314,0.21632440916364526
106,Albignasego,padova,11.0,45.34641419,11.86837713,18797.3125,1238952.0625,922.2375,14.874375,3957.7717420917543,271951.5867055431,272.8838797608487,0.40551150826250687
107,Albinea,reggio nell'emilia,304.0,44.61962564,10.60205897,10203.3125,620565.5,696.7875,15.265625,879.4480631812962,57061.80827839229,168.99244509740663,0.5238825409065151
108,Albino,bergamo,731.0,45.76059116,9.7969345,4083.25,226830.0,1129.1125000000002,14.084999999999999,467.63183524363853,33453.5271802541,304.6219862386824,0.5853318147284783
109,Albiolo,como,405.5,45.80680091,8.93736248,507.5,25630.3125,1352.0,15.109374999999996,90.6686274297786,4408.477994633371,367.41662455583037,0.422081646919961
110,Albisola Superiore,savona,416.0,44.33968692,8.51033951,167.125,4486.0625,953.8000000000001,16.673750000000002,50.7357533369385,1428.4520511728772,341.41853103388127,0.6410083202788142
111,Albissola Marina,savona,200.0,44.32724829,8.50318133,167.125,4486.0625,953.8000000000001,16.673750000000002,50.7357533369385,1428.4520511728772,341.41853103388127,0.6410083202788142
112,Albizzate,varese,316.5,45.72373624,8.80354799,522.375,27158.1875,1608.8749999999998,13.443750000000001,147.05730175683215,7335.348828049465,389.78763363315323,0.4697499334752481
113,Albonese,pavia,114.0,45.2928504,8.7061279,11527.0625,614800.0,691.7624999999999,14.20375,1762.7015428502539,115834.0484198551,218.8631989013533,0.4044564253414697
114,Albosaggia,sondrio,1423.0,46.147398,9.85465398,1850.875,81744.0625,999.2875,12.668749999999998,2197.994172725063,98099.43708602936,204.0056629115967,0.8827825326772158
115,Albugnano,asti,398.5,45.07801783,7.9715283,8971.375,420890.6875,699.9874999999998,13.439999999999998,1079.425518505099,111863.49586987332,207.8018988524086,0.5079895012038472
116,Albuzzano,pavia,74.0,45.18754704,9.27717753,11527.0625,614800.0,691.7624999999999,14.20375,1762.7015428502539,115834.0484198551,218.8631989013533,0.4044564253414697
117,Alcara li Fusi,messina,919.0,38.02145385,14.70108558,121.5625,2655.9375,842.9125,19.570624999999996,23.644502532301242,798.5804462711736,172.99818447987636,0.38606508518642296
118,Aldeno,trento,693.5,45.97728775,11.09131825,2774.625,115916.0625,1024.8025000000002,13.4025,2240.5244884475896,94263.90630527235,277.2811755721377,0.4346262762420139
119,Ales,oristano,462.0,39.76922741,8.81584466,2500.125,103576.6875,575.68125,17.361875,2202.084644906579,93583.94608529731,158.35728051361158,1.0104600849777947
120,Alessandria,alessandria,170.0,44.91297351,8.61540116,33505.125,1694910.3125,623.8125,13.59125,3816.976340420957,397170.676324712,196.27805404578473,0.46121397781651574
121,Alessandria del Carretto,cosenza,1041.0,39.95853578,16.37827535,7281.625,197788.75,1019.0874999999999,16.216875,2362.3275492615326,55901.76123582035,257.9193772609314,0.21632440916364526
122,Alfano,salerno,345.5,40.17766666,15.42591415,3410.75,112994.5625,1083.46875,17.98875,825.9487877586602,26821.94106564935,262.93953606295116,1.320655771450936
123,Alfedena,l'aquila,1524.5,41.73396985,14.03435518,2152.25,82311.875,627.6375,12.88125,573.0578213990859,21152.881984495638,163.03043836453773,0.28446147952461626
124,Alfianello,brescia,47.5,45.26758605,10.14824994,6047.4375,354048.75,957.6749999999998,15.284375,1029.971453892453,74817.50704258107,228.0788854760563,0.48583905085257684
125,Alfiano Natta,alessandria,294.0,45.04723245,8.20845976,33505.125,1694910.3125,623.8125,13.59125,3816.976340420957,397170.676324712,196.27805404578473,0.46121397781651574
126,Alghero,sassari,218.0,40.54843552,8.32608134,2458.3125,102384.125,653.6249999999999,15.894375000000002,2247.680366325841,94906.06547098732,156.89012503447546,0.5901973539983606
127,Algua,bergamo,786.0,45.82583705,9.72222924,4083.25,226830.0,1129.1125000000002,14.084999999999999,467.63183524363853,33453.5271802541,304.6219862386824,0.5853318147284783
128,Aliano,matera,500.0,40.31395877,16.23105383,1494.4375,45672.625,604.9125,16.564375000000002,431.8425590806599,13946.850449115742,86.00545622226534,0.6058159098824221
129,Alice Bel Colle,alessandria,292.5,44.72578802,8.45120062,33505.125,1694910.3125,623.8125,13.59125,3816.976340420957,397170.676324712,196.27805404578473,0.46121397781651574
130,Alice Castello,vercelli,293.0,45.36652862,8.07469466,1540.5,81477.1875,826.43125,13.579999999999998,276.7065834658318,15051.54649958491,243.22100709368559,0.4360428113538087
131,Alife,caserta,659.0,41.32713742,14.33616107,2187.3125,78073.8125,1065.25,16.639687500000004,294.8526680112176,12796.905304115528,192.76855206870925,0.6354013659359996
132,Allai,oristano,361.0,39.95793491,8.85951425,2500.125,103576.6875,575.68125,17.361875,2202.084644906579,93583.94608529731,158.35728051361158,1.0104600849777947
133,Alleghe,belluno,2027.0,46.40628388,12.02054508,37.8125,1771.0625,1563.2375000000002,11.48,36.47139289909284,1650.0640176974953,340.421105642213,0.5144446844251908
134,Allerona,terni,482.5,42.81170398,11.97385887,5475.4375,230072.6875,808.4749999999999,16.520625,655.1655229787355,39828.65075916875,170.19131000142164,0.26799175982356976
135,Allumiere,roma,326.0,42.15653936,11.90213898,1694.8125,56850.9375,768.801875,17.31625,700.9676377456142,30369.584796785857,200.28264828216317,0.7519297396255384
136,Almenno San Bartolomeo,bergamo,723.0,45.74829449,9.57826907,4083.25,226830.0,1129.1125000000002,14.084999999999999,467.63183524363853,33453.5271802541,304.6219862386824,0.5853318147284783
137,Almenno San Salvatore,bergamo,521.0,45.74973808,9.58738459,4083.25,226830.0,1129.1125000000002,14.084999999999999,467.63183524363853,33453.5271802541,304.6219862386824,0.5853318147284783
138,Almese,torino,821.5,45.11766321,7.39518194,18967.5,1075820.1875,951.5749999999998,15.0475,2572.9419736947048,164744.96700302928,230.23461512118456,0.4558289152741407
139,Almè,bergamo,277.5,45.74006437,9.6175669,4083.25,226830.0,1129.1125000000002,14.084999999999999,467.63183524363853,33453.5271802541,304.6219862386824,0.5853318147284783
140,Alonte,vicenza,98.5,45.36584993,11.42661929,6031.375,381593.625,1063.0425,14.080625,1610.3463343848327,112385.5681582382,348.58196563601314,0.6200050403020921
141,Alpette,torino,1059.0,45.40998223,7.57859732,18967.5,1075820.1875,951.5749999999998,15.0475,2572.9419736947048,164744.96700302928,230.23461512118456,0.4558289152741407
142,Alpignano,torino,338.0,45.09446973,7.52426733,18967.5,1075820.1875,951.5749999999998,15.0475,2572.9419736947048,164744.96700302928,230.23461512118456,0.4558289152741407
143,Alseno,piacenza,125.5,44.89633345,9.96455314,19921.9375,1141744.1875,710.0500000000001,14.853124999999999,5087.55745544952,286383.4432873098,212.12154377463247,0.4621791680001741
144,Alserio,como,307.0,45.77868888,9.19837284,507.5,25630.3125,1352.0,15.109374999999996,90.6686274297786,4408.477994633371,367.41662455583037,0.422081646919961
145,Altamura,bari,501.0,40.82794435,16.55231244,4028.0,99657.0,581.85,17.469374999999996,1957.8944132238933,46157.1067550816,140.06418528660353,0.307125788562276
146,Altare,savona,580.0,44.33478282,8.3439314,167.125,4486.0625,953.8000000000001,16.673750000000002,50.7357533369385,1428.4520511728772,341.41853103388127,0.6410083202788142
147,Altavilla Irpina,avellino,381.5,41.00583009,14.77745859,4778.25,161751.8125,1205.975,15.466875,829.189765172404,50037.742893698094,260.2490486694108,0.3203689279565049
148,Altavilla Monferrato,alessandria,211.0,44.9928995,8.3757125,33505.125,1694910.3125,623.8125,13.59125,3816.976340420957,397170.676324712,196.27805404578473,0.46121397781651574
149,Altavilla Silentina,salerno,223.0,40.5271738,15.13759173,3410.75,112994.5625,1083.46875,17.98875,825.9487877586602,26821.94106564935,262.93953606295116,1.320655771450936
150,Altavilla Vicentina,vicenza,174.5,45.51280375,11.46460545,6031.375,381593.625,1063.0425,14.080625,1610.3463343848327,112385.5681582382,348.58196563601314,0.6200050403020921
151,Altidona,fermo,133.0,43.10672038,13.79441016,3533.4375,166757.9375,737.8375000000001,15.015937500000001,586.4204372007057,30652.437989973434,144.5071664889553,0.4144040650942835
152,Altilia,cosenza,393.5,39.13010851,16.25269561,7281.625,197788.75,1019.0874999999999,16.216875,2362.3275492615326,55901.76123582035,257.9193772609314,0.21632440916364526
153,Altino,chieti,254.5,42.1024207,14.33260982,1497.75,51564.1875,769.8250000000002,15.673125,419.16019213024856,17190.93765997558,133.11107892783878,0.3387372383820039
154,Altissimo,vicenza,798.5,45.61513104,11.25123374,6031.375,381593.625,1063.0425,14.080625,1610.3463343848327,112385.5681582382,348.58196563601314,0.6200050403020921
155,Altivole,treviso,87.5,45.7539904,11.95579071,7959.0625,483890.5,1111.0375,14.345625000000002,1256.1667866303953,88921.46282272537,286.44330416331957,0.41823388592190064
156,Alto,cuneo,961.0,44.10828374,8.00368552,19170.1875,996373.9375,978.53125,13.02875,3783.97012353868,127107.35098148005,238.41430247575332,0.4869069041750523
157,Altomonte,cosenza,327.0,39.69820643,16.12925055,7281.625,197788.75,1019.0874999999999,16.216875,2362.3275492615326,55901.76123582035,257.9193772609314,0.21632440916364526
158,Altopascio,lucca,40.5,43.81503652,10.67474472,261.25,10783.1875,1444.1625000000001,15.723749999999999,114.607445947751,4604.1468875894925,373.70245717682945,0.4035653602577901
159,Alviano,terni,411.0,42.58772713,12.29564824,5475.4375,230072.6875,808.4749999999999,16.520625,655.1655229787355,39828.65075916875,170.19131000142164,0.26799175982356976
160,Alvignano,caserta,312.0,41.24491961,14.33676719,2187.3125,78073.8125,1065.25,16.639687500000004,294.8526680112176,12796.905304115528,192.76855206870925,0.6354013659359996
161,Alvito,frosinone,1109.0,41.68776332,13.74263677,5194.9375,160043.5,1130.0625,15.23125,888.960101748104,36233.527709383554,282.08924326650003,0.4147268177165945
162,Alzano Lombardo,bergamo,737.0,45.72747077,9.72580631,4083.25,226830.0,1129.1125000000002,14.084999999999999,467.63183524363853,33453.5271802541,304.6219862386824,0.5853318147284783
163,Alzano Scrivia,alessandria,76.0,45.01755597,8.88128698,33505.125,1694910.3125,623.8125,13.59125,3816.976340420957,397170.676324712,196.27805404578473,0.46121397781651574
164,Alzate Brianza,como,349.5,45.76698007,9.18202575,507.5,25630.3125,1352.0,15.109374999999996,90.6686274297786,4408.477994633371,367.41662455583037,0.422081646919961
165,Alà dei Sardi,sassari,613.5,40.65069405,9.32917825,2458.3125,102384.125,653.6249999999999,15.894375000000002,2247.680366325841,94906.06547098732,156.89012503447546,0.5901973539983606
166,Alì,messina,672.5,38.02694065,15.41797276,121.5625,2655.9375,842.9125,19.570624999999996,23.644502532301242,798.5804462711736,172.99818447987636,0.38606508518642296
167,Alì Terme,messina,288.5,38.00375238,15.42261725,121.5625,2655.9375,842.9125,19.570624999999996,23.644502532301242,798.5804462711736,172.99818447987636,0.38606508518642296
168,Amalfi,salerno,518.0,40.63424015,14.60521014,3410.75,112994.5625,1083.46875,17.98875,825.9487877586602,26821.94106564935,262.93953606295116,1.320655771450936
169,Amandola,fermo,1096.0,42.9804282,13.35571226,3533.4375,166757.9375,737.8375000000001,15.015937500000001,586.4204372007057,30652.437989973434,144.5071664889553,0.4144040650942835
170,Amantea,cosenza,219.5,39.13287384,16.08001218,7281.625,197788.75,1019.0874999999999,16.216875,2362.3275492615326,55901.76123582035,257.9193772609314,0.21632440916364526
171,Amaro,udine,1076.5,46.3736167,13.09474064,6895.75,342537.625,1355.8625000000002,14.64,2415.4215229092692,162604.4426141242,332.74025680701754,0.5777311947033271
172,Amaroni,catanzaro,492.0,38.79361598,16.4483454,1563.375,49437.1875,1069.475,17.23,449.8331357292391,15577.148481964428,256.23268461823267,0.23174698847378117
173,Amaseno,frosinone,558.5,41.46812425,13.33578221,5194.9375,160043.5,1130.0625,15.23125,888.960101748104,36233.527709383554,282.08924326650003,0.4147268177165945
174,Amato,catanzaro,561.5,38.94139316,16.46276195,1563.375,49437.1875,1069.475,17.23,449.8331357292391,15577.148481964428,256.23268461823267,0.23174698847378117
175,Amatrice,rieti,1603.5,42.62938445,13.28838645,2973.375,126081.25,995.86875,13.835624999999997,1148.9059651105772,37161.537979475506,233.51380749683017,0.32653675137723814
176,Ambivere,bergamo,396.0,45.71859384,9.54722545,4083.25,226830.0,1129.1125000000002,14.084999999999999,467.63183524363853,33453.5271802541,304.6219862386824,0.5853318147284783
177,Ameglia,la spezia,181.5,44.065747,9.95726865,25.8125,976.25,1145.275,16.570625,19.964030154254928,687.9135120056882,335.1271987370368,0.3957182288784114
178,Amelia,terni,464.5,42.55889701,12.41191794,5475.4375,230072.6875,808.4749999999999,16.520625,655.1655229787355,39828.65075916875,170.19131000142164,0.26799175982356976
179,Amendolara,cosenza,401.5,39.95101261,16.58410071,7281.625,197788.75,1019.0874999999999,16.216875,2362.3275492615326,55901.76123582035,257.9193772609314,0.21632440916364526
180,Ameno,novara,583.5,45.78878319,8.43942761,1731.3125,86312.4375,884.225,14.478124999999995,674.0412172115293,28011.521132012214,296.42364165722904,0.4883198234763771
181,Amorosi,benevento,59.5,41.20530843,14.46115943,5670.9375,207164.125,733.7375,15.363125000000002,1063.0180599751513,44366.52122471778,162.90271483311753,0.33143563980557833
182,Ampezzo,udine,1285.0,46.41666451,12.79457813,6895.75,342537.625,1355.8625000000002,14.64,2415.4215229092692,162604.4426141242,332.74025680701754,0.5777311947033271
183,Anagni,frosinone,467.0,41.74393633,13.15452041,5194.9375,160043.5,1130.0625,15.23125,888.960101748104,36233.527709383554,282.08924326650003,0.4147268177165945
184,Ancarano,teramo,173.0,42.83680898,13.74139609,16274.0625,710729.875,813.00625,16.007499999999997,2730.2119690297554,134201.09125332528,168.71606313073252,1.1387507775335806
185,Ancona,ancona,282.0,43.61675973,13.51887537,1177.875,43679.8125,727.2375000000001,16.845000000000002,996.0398168078757,37067.368837867354,136.93934849657592,0.6926374713128551
186,Andali,catanzaro,463.0,39.01394149,16.76704577,1563.375,49437.1875,1069.475,17.23,449.8331357292391,15577.148481964428,256.23268461823267,0.23174698847378117
187,Andalo,trento,1446.5,46.16487823,11.0032873,2774.625,115916.0625,1024.8025000000002,13.4025,2240.5244884475896,94263.90630527235,277.2811755721377,0.4346262762420139
188,Andalo Valtellino,sondrio,1228.0,46.13447907,9.47301339,1850.875,81744.0625,999.2875,12.668749999999998,2197.994172725063,98099.43708602936,204.0056629115967,0.8827825326772158
189,Andezeno,torino,321.5,45.03586095,7.86994864,18967.5,1075820.1875,951.5749999999998,15.0475,2572.9419736947048,164744.96700302928,230.23461512118456,0.4558289152741407
190,Andora,savona,340.5,43.95824758,8.14003459,167.125,4486.0625,953.8000000000001,16.673750000000002,50.7357533369385,1428.4520511728772,341.41853103388127,0.6410083202788142
191,Andorno Micca,biella,1478.5,45.61556222,8.05331781,270.5625,12517.9375,1291.4125,14.43375,107.79361066408342,5302.625028778987,304.06637405891064,0.4746630383756456
192,Andrate,torino,1396.5,45.52837479,7.87383937,18967.5,1075820.1875,951.5749999999998,15.0475,2572.9419736947048,164744.96700302928,230.23461512118456,0.4558289152741407
193,Andreis,pordenone,1207.0,46.20181387,12.61456216,2370.4375,112265.25,1342.5187500000002,14.229999999999999,968.3680408295183,51438.24145581444,327.45429038518745,0.4063003814913297
194,Andretta,avellino,681.0,40.93254843,15.32147231,4778.25,161751.8125,1205.975,15.466875,829.189765172404,50037.742893698094,260.2490486694108,0.3203689279565049
195,Anela,sassari,699.0,40.44354491,9.05666422,2458.3125,102384.125,653.6249999999999,15.894375000000002,2247.680366325841,94906.06547098732,156.89012503447546,0.5901973539983606
196,Anfo,brescia,1079.5,45.76575,10.49379785,6047.4375,354048.75,957.6749999999998,15.284375,1029.971453892453,74817.50704258107,228.0788854760563,0.48583905085257684
197,Angera,varese,301.5,45.77248072,8.57505473,522.375,27158.1875,1608.8749999999998,13.443750000000001,147.05730175683215,7335.348828049465,389.78763363315323,0.4697499334752481
198,Anghiari,arezzo,838.5,43.54052916,12.05683986,4984.5,163910.25,760.0625,14.5875,1958.8639564808984,71860.28047769736,215.82549393742468,0.3112876483254679
199,Angiari,verona,18.5,45.21802033,11.28372239,15129.3125,939398.75,788.2687500000001,14.358749999999999,1565.6389417210253,172397.40928003142,223.46362483634778,0.4852748362182674
200,Angolo Terme,brescia,1077.5,45.89295916,10.14687744,6047.4375,354048.75,957.6749999999998,15.284375,1029.971453892453,74817.50704258107,228.0788854760563,0.48583905085257684
201,Angri,salerno,455.5,40.74321786,14.56844128,3410.75,112994.5625,1083.46875,17.98875,825.9487877586602,26821.94106564935,262.93953606295116,1.320655771450936
202,Angrogna,torino,1644.5,44.84344991,7.22429215,18967.5,1075820.1875,951.5749999999998,15.0475,2572.9419736947048,164744.96700302928,230.23461512118456,0.4558289152741407
203,Anguillara Sabazia,roma,241.5,42.09291489,12.26978922,1694.8125,56850.9375,768.801875,17.31625,700.9676377456142,30369.584796785857,200.28264828216317,0.7519297396255384
204,Anguillara Veneta,padova,7.5,45.13873545,11.8860307,18797.3125,1238952.0625,922.2375,14.874375,3957.7717420917543,271951.5867055431,272.8838797608487,0.40551150826250687
205,Annicco,cremona,61.5,45.24474357,9.88185079,8995.125,532520.75,736.9562500000001,14.843124999999999,1972.3539193900606,142862.93958733085,248.9312059418559,0.6920473851791755
206,Annone Veneto,venezia,6.5,45.79437439,12.6830159,15878.125,1058388.8125,679.38125,15.058125,3096.961734237821,209992.7819753872,171.47359065368252,0.5994132547750346
207,Annone di Brianza,lecco,249.5,45.80521736,9.33099149,359.375,18240.8125,1323.0625000000002,15.040625,71.88034038131242,3711.8601665247757,298.0390284845259,0.4564569165503649
208,Antegnate,bergamo,112.5,45.48444261,9.79245129,4083.25,226830.0,1129.1125000000002,14.084999999999999,467.63183524363853,33453.5271802541,304.6219862386824,0.5853318147284783
209,Anticoli Corrado,roma,712.0,42.00933844,12.99038438,1694.8125,56850.9375,768.801875,17.31625,700.9676377456142,30369.584796785857,200.28264828216317,0.7519297396255384
210,Antignano,asti,191.5,44.84544206,8.13378727,8971.375,420890.6875,699.9874999999998,13.439999999999998,1079.425518505099,111863.49586987332,207.8018988524086,0.5079895012038472
211,Antillo,messina,816.0,37.97612979,15.24539421,121.5625,2655.9375,842.9125,19.570624999999996,23.644502532301242,798.5804462711736,172.99818447987636,0.38606508518642296
212,Antrodoco,rieti,1176.0,42.41753444,13.08020398,2973.375,126081.25,995.86875,13.835624999999997,1148.9059651105772,37161.537979475506,233.51380749683017,0.32653675137723814
213,Anversa degli Abruzzi,l'aquila,1117.5,41.99463497,13.8035817,2152.25,82311.875,627.6375,12.88125,573.0578213990859,21152.881984495638,163.03043836453773,0.28446147952461626
214,Anzano del Parco,como,314.5,45.77086446,9.19875952,507.5,25630.3125,1352.0,15.109374999999996,90.6686274297786,4408.477994633371,367.41662455583037,0.422081646919961
215,Anzano di Puglia,foggia,743.0,41.1195674,15.29034082,2727.0625,88686.875,486.5999999999999,17.629375,1520.766713152722,53917.15332727301,70.78063765371617,0.30771130950941633
216,Anzi,potenza,879.5,40.51449458,15.92392583,5191.75,130815.6875,748.2312499999999,13.649999999999999,829.9411625731867,24654.08772791712,184.8539016583998,0.4445372125405621
217,Anzio,roma,41.5,41.44805488,12.62871796,1694.8125,56850.9375,768.801875,17.31625,700.9676377456142,30369.584796785857,200.28264828216317,0.7519297396255384
218,Anzola dell'Emilia,bologna,41.5,44.546483,11.19326943,27838.4375,1808144.8125,726.9593749999999,15.567500000000003,3848.1809203613752,234120.8374807673,158.77762249841757,0.6437753231265292
219,Apice,benevento,377.0,41.11857609,14.93107277,5670.9375,207164.125,733.7375,15.363125000000002,1063.0180599751513,44366.52122471778,162.90271483311753,0.33143563980557833
220,Apiro,macerata,841.0,43.39247319,13.13101333,5795.5,262254.8125,875.9393749999999,15.816250000000002,4672.752507890827,163460.48402155947,176.26257044416244,0.4146625133768426
221,Apollosa,benevento,387.0,41.09342313,14.7045246,5670.9375,207164.125,733.7375,15.363125000000002,1063.0180599751513,44366.52122471778,162.90271483311753,0.33143563980557833
222,Appiano Gentile,como,350.0,45.73500438,8.97949173,507.5,25630.3125,1352.0,15.109374999999996,90.6686274297786,4408.477994633371,367.41662455583037,0.422081646919961
223,Appignano,macerata,182.5,43.36406969,13.34623812,5795.5,262254.8125,875.9393749999999,15.816250000000002,4672.752507890827,163460.48402155947,176.26257044416244,0.4146625133768426
224,Appignano del Tronto,ascoli piceno,288.5,42.89908619,13.66604194,6208.375,285989.5,870.5749999999999,14.051874999999999,2270.6913447964107,100273.74176257045,135.31409140711588,0.7625677565523827
225,Aprica,sondrio,1599.5,46.15334799,10.15206343,1850.875,81744.0625,999.2875,12.668749999999998,2197.994172725063,98099.43708602936,204.0056629115967,0.8827825326772158
226,Apricena,foggia,332.5,41.78540257,15.44323605,2727.0625,88686.875,486.5999999999999,17.629375,1520.766713152722,53917.15332727301,70.78063765371617,0.30771130950941633
227,Aprigliano,cosenza,1082.5,39.24053515,16.34080544,7281.625,197788.75,1019.0874999999999,16.216875,2362.3275492615326,55901.76123582035,257.9193772609314,0.21632440916364526
228,Aprilia,latina,84.0,41.59415376,12.64816922,1869.375,75510.625,846.1375,17.835625,358.37538512942916,17230.672445283923,229.24984878221113,0.4466910752037327
229,Aquara,salerno,412.5,40.44280787,15.25320988,3410.75,112994.5625,1083.46875,17.98875,825.9487877586602,26821.94106564935,262.93953606295116,1.320655771450936
230,Aquileia,udine,5.5,45.76643933,13.36493966,6895.75,342537.625,1355.8625000000002,14.64,2415.4215229092692,162604.4426141242,332.74025680701754,0.5777311947033271
231,Aquilonia,avellino,594.5,40.98660751,15.47175714,4778.25,161751.8125,1205.975,15.466875,829.189765172404,50037.742893698094,260.2490486694108,0.3203689279565049
232,Aquino,frosinone,85.5,41.49248588,13.70399751,5194.9375,160043.5,1130.0625,15.23125,888.960101748104,36233.527709383554,282.08924326650003,0.4147268177165945
233,Aramengo,asti,366.5,45.09973309,8.00198071,8971.375,420890.6875,699.9874999999998,13.439999999999998,1079.425518505099,111863.49586987332,207.8018988524086,0.5079895012038472
234,Arba,pordenone,209.0,46.14619163,12.79076084,2370.4375,112265.25,1342.5187500000002,14.229999999999999,968.3680408295183,51438.24145581444,327.45429038518745,0.4063003814913297
235,Arborea,oristano,9.5,39.77345146,8.58218011,2500.125,103576.6875,575.68125,17.361875,2202.084644906579,93583.94608529731,158.35728051361158,1.0104600849777947
236,Arborio,vercelli,184.0,45.49608576,8.38898545,1540.5,81477.1875,826.43125,13.579999999999998,276.7065834658318,15051.54649958491,243.22100709368559,0.4360428113538087
237,Arcade,treviso,57.0,45.78501021,12.21902869,7959.0625,483890.5,1111.0375,14.345625000000002,1256.1667866303953,88921.46282272537,286.44330416331957,0.41823388592190064
238,Arce,frosinone,251.5,41.5877795,13.57406212,5194.9375,160043.5,1130.0625,15.23125,888.960101748104,36233.527709383554,282.08924326650003,0.4147268177165945
239,Arcene,bergamo,151.0,45.57551324,9.61367879,4083.25,226830.0,1129.1125000000002,14.084999999999999,467.63183524363853,33453.5271802541,304.6219862386824,0.5853318147284783
240,Arcevia,ancona,438.0,43.49999837,12.93959861,1177.875,43679.8125,727.2375000000001,16.845000000000002,996.0398168078757,37067.368837867354,136.93934849657592,0.6926374713128551
241,Archi,chieti,412.0,42.08914074,14.38157415,1497.75,51564.1875,769.8250000000002,15.673125,419.16019213024856,17190.93765997558,133.11107892783878,0.3387372383820039
242,Arcidosso,grosseto,838.0,42.87146264,11.53879434,3676.9375,115442.5,582.2625000000002,16.056875,1119.6747425778017,36804.86697888383,206.50030790937495,0.3935940167228153
243,Arcinazzo Romano,roma,989.0,41.88021199,13.11410074,1694.8125,56850.9375,768.801875,17.31625,700.9676377456142,30369.584796785857,200.28264828216317,0.7519297396255384
244,Arcisate,varese,674.5,45.85936588,8.85979602,522.375,27158.1875,1608.8749999999998,13.443750000000001,147.05730175683215,7335.348828049465,389.78763363315323,0.4697499334752481
245,Arco,trento,1060.0,45.91928662,10.8861933,2774.625,115916.0625,1024.8025000000002,13.4025,2240.5244884475896,94263.90630527235,277.2811755721377,0.4346262762420139
246,Arcola,la spezia,145.5,44.11461457,9.90585039,25.8125,976.25,1145.275,16.570625,19.964030154254928,687.9135120056882,335.1271987370368,0.3957182288784114
247,Arcole,verona,26.5,45.35768001,11.28695082,15129.3125,939398.75,788.2687500000001,14.358749999999999,1565.6389417210253,172397.40928003142,223.46362483634778,0.4852748362182674
248,Arconate,milano,179.0,45.54155555,8.85151512,5776.1875,322345.875,819.7375000000001,15.768125000000001,2442.1657934096115,132770.57721843597,245.4266241330254,0.8747968811863321
249,Arcugnano,vicenza,218.5,45.49612153,11.55075114,6031.375,381593.625,1063.0425,14.080625,1610.3463343848327,112385.5681582382,348.58196563601314,0.6200050403020921
250,Ardara,sassari,349.0,40.6238864,8.80926358,2458.3125,102384.125,653.6249999999999,15.894375000000002,2247.680366325841,94906.06547098732,156.89012503447546,0.5901973539983606
251,Ardauli,oristano,368.5,40.08728814,8.91123069,2500.125,103576.6875,575.68125,17.361875,2202.084644906579,93583.94608529731,158.35728051361158,1.0104600849777947
252,Ardea,roma,71.0,41.60929055,12.54537478,1694.8125,56850.9375,768.801875,17.31625,700.9676377456142,30369.584796785857,200.28264828216317,0.7519297396255384
253,Ardenno,sondrio,1116.0,46.17276047,9.65172236,1850.875,81744.0625,999.2875,12.668749999999998,2197.994172725063,98099.43708602936,204.0056629115967,0.8827825326772158
254,Ardesio,bergamo,1506.0,45.93819796,9.929649,4083.25,226830.0,1129.1125000000002,14.084999999999999,467.63183524363853,33453.5271802541,304.6219862386824,0.5853318147284783
255,Arena,vibo valentia,716.0,38.56295629,16.20999999,909.5,25361.0,981.625,15.75375,516.8980557131164,13613.117164460657,148.40553224189458,0.2740772397214573
256,Arena Po,pavia,80.0,45.09443229,9.36186971,11527.0625,614800.0,691.7624999999999,14.20375,1762.7015428502539,115834.0484198551,218.8631989013533,0.4044564253414697
257,Arenzano,genova,590.5,44.40179322,8.68226057,244.5,9883.25,1075.611875,16.669375000000002,914.8508803806953,39137.82723913018,376.94349140101,0.4808945657140789
258,Arese,milano,160.5,45.54987207,9.0785758,5776.1875,322345.875,819.7375000000001,15.768125000000001,2442.1657934096115,132770.57721843597,245.4266241330254,0.8747968811863321
259,Arezzo,arezzo,631.0,43.46642752,11.88228845,4984.5,163910.25,760.0625,14.5875,1958.8639564808984,71860.28047769736,215.82549393742468,0.3112876483254679
260,Argegno,como,574.0,45.94508355,9.12740292,507.5,25630.3125,1352.0,15.109374999999996,90.6686274297786,4408.477994633371,367.41662455583037,0.422081646919961
261,Argelato,bologna,23.5,44.64232695,11.34764547,27838.4375,1808144.8125,726.9593749999999,15.567500000000003,3848.1809203613752,234120.8374807673,158.77762249841757,0.6437753231265292
262,Argenta,ferrara,9.5,44.61443583,11.83704263,30334.0625,1953193.6875,537.1250000000001,14.984375,4264.495522626328,339072.063920286,162.489628386963,0.4434556535513634
263,Argentera,cuneo,2190.0,44.3795888,6.96937784,19170.1875,996373.9375,978.53125,13.02875,3783.97012353868,127107.35098148005,238.41430247575332,0.4869069041750523
264,Arguello,cuneo,561.5,44.5829271,8.11067964,19170.1875,996373.9375,978.53125,13.02875,3783.97012353868,127107.35098148005,238.41430247575332,0.4869069041750523
265,Argusto,catanzaro,495.5,38.68080662,16.4358786,1563.375,49437.1875,1069.475,17.23,449.8331357292391,15577.148481964428,256.23268461823267,0.23174698847378117
266,Ari,chieti,231.0,42.29111265,14.2601366,1497.75,51564.1875,769.8250000000002,15.673125,419.16019213024856,17190.93765997558,133.11107892783878,0.3387372383820039
267,Ariano Irpino,avellino,481.0,41.15385883,15.09006787,4778.25,161751.8125,1205.975,15.466875,829.189765172404,50037.742893698094,260.2490486694108,0.3203689279565049
268,Ariano nel Polesine,rovigo,5.0,44.94521256,12.12108456,24455.5625,1599336.75,667.4187499999999,14.273125,2987.9694770585156,175797.58714024874,155.69555856970786,0.3895590455887267
269,Ariccia,roma,385.0,41.72002036,12.67058132,1694.8125,56850.9375,768.801875,17.31625,700.9676377456142,30369.584796785857,200.28264828216317,0.7519297396255384
270,Arielli,chieti,282.0,42.26499697,14.30477819,1497.75,51564.1875,769.8250000000002,15.673125,419.16019213024856,17190.93765997558,133.11107892783878,0.3387372383820039
271,Arienzo,caserta,442.0,41.02554469,14.49379698,2187.3125,78073.8125,1065.25,16.639687500000004,294.8526680112176,12796.905304115528,192.76855206870925,0.6354013659359996
272,Arignano,torino,308.5,45.04402899,7.90244635,18967.5,1075820.1875,951.5749999999998,15.0475,2572.9419736947048,164744.96700302928,230.23461512118456,0.4558289152741407
273,Aritzo,nuoro,941.5,39.95938538,9.19794984,2764.8125,115427.25,769.0343750000001,15.015937500000001,2253.2880336299663,94895.92315900617,174.50872062139663,0.4144040650942835
274,Arlena di Castro,viterbo,262.5,42.46300273,11.82358342,2724.375,105737.5,791.825,16.31125,641.903094970988,27725.863376998743,221.44243044186453,0.3910818328687727
275,Arluno,milano,163.5,45.50899319,8.95002987,5776.1875,322345.875,819.7375000000001,15.768125000000001,2442.1657934096115,132770.57721843597,245.4266241330254,0.8747968811863321
276,Armeno,novara,871.5,45.82196603,8.43917903,1731.3125,86312.4375,884.225,14.478124999999995,674.0412172115293,28011.521132012214,296.42364165722904,0.4883198234763771
277,Armento,potenza,701.0,40.30519121,16.06647994,5191.75,130815.6875,748.2312499999999,13.649999999999999,829.9411625731867,24654.08772791712,184.8539016583998,0.4445372125405621
278,Arnara,frosinone,183.5,41.58376978,13.38767675,5194.9375,160043.5,1130.0625,15.23125,888.960101748104,36233.527709383554,282.08924326650003,0.4147268177165945
279,Arnasco,savona,461.5,44.07799865,8.10696787,167.125,4486.0625,953.8000000000001,16.673750000000002,50.7357533369385,1428.4520511728772,341.41853103388127,0.6410083202788142
280,Arona,novara,355.0,45.76039239,8.55948977,1731.3125,86312.4375,884.225,14.478124999999995,674.0412172115293,28011.521132012214,296.42364165722904,0.4883198234763771
281,Arosio,como,304.0,45.71664742,9.20766723,507.5,25630.3125,1352.0,15.109374999999996,90.6686274297786,4408.477994633371,367.41662455583037,0.422081646919961
282,Arpaia,benevento,551.5,41.03685746,14.55176809,5670.9375,207164.125,733.7375,15.363125000000002,1063.0180599751513,44366.52122471778,162.90271483311753,0.33143563980557833
283,Arpaise,benevento,376.0,41.03063198,14.74370822,5670.9375,207164.125,733.7375,15.363125000000002,1063.0180599751513,44366.52122471778,162.90271483311753,0.33143563980557833
284,Arpino,frosinone,518.0,41.64812799,13.61079096,5194.9375,160043.5,1130.0625,15.23125,888.960101748104,36233.527709383554,282.08924326650003,0.4147268177165945
285,Arquata Scrivia,alessandria,479.0,44.68673968,8.88574473,33505.125,1694910.3125,623.8125,13.59125,3816.976340420957,397170.676324712,196.27805404578473,0.46121397781651574
286,Arquata del Tronto,ascoli piceno,1461.5,42.77264083,13.29677295,6208.375,285989.5,870.5749999999999,14.051874999999999,2270.6913447964107,100273.74176257045,135.31409140711588,0.7625677565523827
287,Arquà Petrarca,padova,205.5,45.27003806,11.71639502,18797.3125,1238952.0625,922.2375,14.874375,3957.7717420917543,271951.5867055431,272.8838797608487,0.40551150826250687
288,Arquà Polesine,rovigo,5.5,45.00936992,11.74136883,24455.5625,1599336.75,667.4187499999999,14.273125,2987.9694770585156,175797.58714024874,155.69555856970786,0.3895590455887267
289,Arre,padova,4.5,45.21609585,11.93183887,18797.3125,1238952.0625,922.2375,14.874375,3957.7717420917543,271951.5867055431,272.8838797608487,0.40551150826250687
290,Arrone,terni,754.5,42.58314672,12.76962517,5475.4375,230072.6875,808.4749999999999,16.520625,655.1655229787355,39828.65075916875,170.19131000142164,0.26799175982356976
291,Arsago Seprio,varese,301.5,45.68799132,8.73102942,522.375,27158.1875,1608.8749999999998,13.443750000000001,147.05730175683215,7335.348828049465,389.78763363315323,0.4697499334752481
292,Arsiero,vicenza,1077.0,45.80361106,11.35034581,6031.375,381593.625,1063.0425,14.080625,1610.3463343848327,112385.5681582382,348.58196563601314,0.6200050403020921
293,Arsita,teramo,1318.5,42.50307767,13.78595109,16274.0625,710729.875,813.00625,16.007499999999997,2730.2119690297554,134201.09125332528,168.71606313073252,1.1387507775335806
294,Arsiè,belluno,881.0,45.98441935,11.75713827,37.8125,1771.0625,1563.2375000000002,11.48,36.47139289909284,1650.0640176974953,340.421105642213,0.5144446844251908
295,Arsoli,roma,625.5,42.04140907,13.01652592,1694.8125,56850.9375,768.801875,17.31625,700.9676377456142,30369.584796785857,200.28264828216317,0.7519297396255384
296,Arta Terme,udine,1290.0,46.47288214,13.02486016,6895.75,342537.625,1355.8625000000002,14.64,2415.4215229092692,162604.4426141242,332.74025680701754,0.5777311947033271
297,Artegna,udine,349.0,46.2418532,13.1559816,6895.75,342537.625,1355.8625000000002,14.64,2415.4215229092692,162604.4426141242,332.74025680701754,0.5777311947033271
298,Artena,roma,410.5,41.73866267,12.91536174,1694.8125,56850.9375,768.801875,17.31625,700.9676377456142,30369.584796785857,200.28264828216317,0.7519297396255384
299,Artogne,brescia,1128.0,45.84832151,10.16452435,6047.4375,354048.75,957.6749999999998,15.284375,1029.971453892453,74817.50704258107,228.0788854760563,0.48583905085257684
300,Arzachena,sassari,211.0,41.07937642,9.38847706,2458.3125,102384.125,653.6249999999999,15.894375000000002,2247.680366325841,94906.06547098732,156.89012503447546,0.5901973539983606
301,Arzago d'Adda,bergamo,105.5,45.47970041,9.56429523,4083.25,226830.0,1129.1125000000002,14.084999999999999,467.63183524363853,33453.5271802541,304.6219862386824,0.5853318147284783
302,Arzana,nuoro,915.0,39.91850362,9.52836116,2764.8125,115427.25,769.0343750000001,15.015937500000001,2253.2880336299663,94895.92315900617,174.50872062139663,0.4144040650942835
303,Arzergrande,padova,3.0,45.27341307,12.04649593,18797.3125,1238952.0625,922.2375,14.874375,3957.7717420917543,271951.5867055431,272.8838797608487,0.40551150826250687
304,Arzignano,vicenza,359.5,45.52104336,11.33227401,6031.375,381593.625,1063.0425,14.080625,1610.3463343848327,112385.5681582382,348.58196563601314,0.6200050403020921
305,Ascea,salerno,405.5,40.14337522,15.18401535,3410.75,112994.5625,1083.46875,17.98875,825.9487877586602,26821.94106564935,262.93953606295116,1.320655771450936
306,Asciano,siena,314.5,43.2349413,11.55944599,5629.4375,213392.0625,871.051875,15.1115625,2422.478482016576,77535.63378943366,189.4306011610848,0.48429921450139407
307,Ascoli Piceno,ascoli piceno,566.0,42.85322304,13.57691135,6208.375,285989.5,870.5749999999999,14.051874999999999,2270.6913447964107,100273.74176257045,135.31409140711588,0.7625677565523827
308,Ascoli Satriano,foggia,305.5,41.20814602,15.56026594,2727.0625,88686.875,486.5999999999999,17.629375,1520.766713152722,53917.15332727301,70.78063765371617,0.30771130950941633
309,Ascrea,rieti,878.0,42.19569977,12.99672207,2973.375,126081.25,995.86875,13.835624999999997,1148.9059651105772,37161.537979475506,233.51380749683017,0.32653675137723814
310,Asiago,vicenza,1312.5,45.87570138,11.50911782,6031.375,381593.625,1063.0425,14.080625,1610.3463343848327,112385.5681582382,348.58196563601314,0.6200050403020921
311,Asigliano Veneto,vicenza,19.5,45.30448851,11.44617803,6031.375,381593.625,1063.0425,14.080625,1610.3463343848327,112385.5681582382,348.58196563601314,0.6200050403020921
312,Asigliano Vercellese,vercelli,124.0,45.26117617,8.40619426,1540.5,81477.1875,826.43125,13.579999999999998,276.7065834658318,15051.54649958491,243.22100709368559,0.4360428113538087
313,Asola,mantova,40.5,45.22055281,10.41432135,18129.0,1080452.5625,613.8375,15.516875,2010.4485734946484,147895.17723710887,189.6262600485492,0.7235350141262457
314,Asolo,treviso,225.5,45.80217304,11.91236715,7959.0625,483890.5,1111.0375,14.345625000000002,1256.1667866303953,88921.46282272537,286.44330416331957,0.41823388592190064
315,Assago,milano,106.5,45.40436068,9.1311488,5776.1875,322345.875,819.7375000000001,15.768125000000001,2442.1657934096115,132770.57721843597,245.4266241330254,0.8747968811863321
316,Assemini,cagliari,553.5,39.28961728,9.0062327,2023.125,89619.1875,418.82500000000005,18.27375,2101.6036377014575,94634.37928097713,155.09522021433585,1.0339753381971921
317,Assisi,perugia,735.5,43.07082764,12.61540396,41301.75,2628701.875,844.2124999999999,15.360625,19967.82542825666,1419913.9117764323,236.92734716223308,0.41040579511827824
318,Asso,como,699.0,45.86165523,9.26941885,507.5,25630.3125,1352.0,15.109374999999996,90.6686274297786,4408.477994633371,367.41662455583037,0.422081646919961
319,Assolo,oristano,360.0,39.81074085,8.915627,2500.125,103576.6875,575.68125,17.361875,2202.084644906579,93583.94608529731,158.35728051361158,1.0104600849777947
320,Asti,asti,192.0,44.89912921,8.20414255,8971.375,420890.6875,699.9874999999998,13.439999999999998,1079.425518505099,111863.49586987332,207.8018988524086,0.5079895012038472
321,Asuni,oristano,337.5,39.87191568,8.94773504,2500.125,103576.6875,575.68125,17.361875,2202.084644906579,93583.94608529731,158.35728051361158,1.0104600849777947
322,Ateleta,l'aquila,1283.5,41.85503505,14.19778348,2152.25,82311.875,627.6375,12.88125,573.0578213990859,21152.881984495638,163.03043836453773,0.28446147952461626
323,Atella,potenza,770.5,40.87742205,15.65274277,5191.75,130815.6875,748.2312499999999,13.649999999999999,829.9411625731867,24654.08772791712,184.8539016583998,0.4445372125405621
324,Atena Lucana,salerno,718.0,40.45463856,15.55815913,3410.75,112994.5625,1083.46875,17.98875,825.9487877586602,26821.94106564935,262.93953606295116,1.320655771450936
325,Atessa,chieti,461.5,42.06734847,14.44308594,1497.75,51564.1875,769.8250000000002,15.673125,419.16019213024856,17190.93765997558,133.11107892783878,0.3387372383820039
326,Atina,frosinone,840.0,41.61982849,13.80035528,5194.9375,160043.5,1130.0625,15.23125,888.960101748104,36233.527709383554,282.08924326650003,0.4147268177165945
327,Atrani,salerno,104.5,40.63651748,14.60842588,3410.75,112994.5625,1083.46875,17.98875,825.9487877586602,26821.94106564935,262.93953606295116,1.320655771450936
328,Atri,teramo,231.5,42.57971067,13.97541817,16274.0625,710729.875,813.00625,16.007499999999997,2730.2119690297554,134201.09125332528,168.71606313073252,1.1387507775335806
329,Atripalda,avellino,410.5,40.91799979,14.83665185,4778.25,161751.8125,1205.975,15.466875,829.189765172404,50037.742893698094,260.2490486694108,0.3203689279565049
330,Attigliano,terni,131.0,42.51493803,12.28942454,5475.4375,230072.6875,808.4749999999999,16.520625,655.1655229787355,39828.65075916875,170.19131000142164,0.26799175982356976
331,Attimis,udine,620.0,46.18881181,13.30511815,6895.75,342537.625,1355.8625000000002,14.64,2415.4215229092692,162604.4426141242,332.74025680701754,0.5777311947033271
332,Atzara,nuoro,501.5,39.99167325,9.07629541,2764.8125,115427.25,769.0343750000001,15.015937500000001,2253.2880336299663,94895.92315900617,174.50872062139663,0.4144040650942835
333,Auletta,salerno,705.5,40.55814193,15.42410729,3410.75,112994.5625,1083.46875,17.98875,825.9487877586602,26821.94106564935,262.93953606295116,1.320655771450936
334,Auronzo di Cadore,belluno,1969.5,46.5502226,12.44484194,37.8125,1771.0625,1563.2375000000002,11.48,36.47139289909284,1650.0640176974953,340.421105642213,0.5144446844251908
335,Ausonia,frosinone,598.0,41.35424556,13.74885639,5194.9375,160043.5,1130.0625,15.23125,888.960101748104,36233.527709383554,282.08924326650003,0.4147268177165945
336,Austis,nuoro,540.0,40.07104643,9.08850029,2764.8125,115427.25,769.0343750000001,15.015937500000001,2253.2880336299663,94895.92315900617,174.50872062139663,0.4144040650942835
337,Avegno,genova,362.5,44.38230695,9.15871776,244.5,9883.25,1075.611875,16.669375000000002,914.8508803806953,39137.82723913018,376.94349140101,0.4808945657140789
338,Avella,avellino,816.0,40.96033617,14.5999459,4778.25,161751.8125,1205.975,15.466875,829.189765172404,50037.742893698094,260.2490486694108,0.3203689279565049
339,Avellino,avellino,526.0,40.91404698,14.79528841,4778.25,161751.8125,1205.975,15.466875,829.189765172404,50037.742893698094,260.2490486694108,0.3203689279565049
340,Averara,bergamo,1358.0,45.9885508,9.63115452,4083.25,226830.0,1129.1125000000002,14.084999999999999,467.63183524363853,33453.5271802541,304.6219862386824,0.5853318147284783
341,Aversa,caserta,49.0,40.9730782,14.20627126,2187.3125,78073.8125,1065.25,16.639687500000004,294.8526680112176,12796.905304115528,192.76855206870925,0.6354013659359996
342,Avetrana,taranto,55.5,40.3486326,17.72553974,1123.8125,33374.6875,530.9124999999999,19.14125,846.4333971632578,28183.575918653405,86.94684870655176,0.4623833186149052
343,Avezzano,l'aquila,1023.0,42.03068032,13.4267507,2152.25,82311.875,627.6375,12.88125,573.0578213990859,21152.881984495638,163.03043836453773,0.28446147952461626
344,Aviano,pordenone,1159.5,46.06720286,12.5881786,2370.4375,112265.25,1342.5187500000002,14.229999999999999,968.3680408295183,51438.24145581444,327.45429038518745,0.4063003814913297
345,Aviatico,bergamo,864.5,45.7928051,9.76892181,4083.25,226830.0,1129.1125000000002,14.084999999999999,467.63183524363853,33453.5271802541,304.6219862386824,0.5853318147284783
346,Avigliana,torino,650.5,45.07935742,7.39632339,18967.5,1075820.1875,951.5749999999998,15.0475,2572.9419736947048,164744.96700302928,230.23461512118456,0.4558289152741407
347,Avigliano,potenza,886.5,40.72977773,15.71780199,5191.75,130815.6875,748.2312499999999,13.649999999999999,829.9411625731867,24654.08772791712,184.8539016583998,0.4445372125405621
348,Avigliano Umbro,terni,565.0,42.65508185,12.42809534,5475.4375,230072.6875,808.4749999999999,16.520625,655.1655229787355,39828.65075916875,170.19131000142164,0.26799175982356976
349,Avio,trento,1149.0,45.73545329,10.94154266,2774.625,115916.0625,1024.8025000000002,13.4025,2240.5244884475896,94263.90630527235,277.2811755721377,0.4346262762420139
350,Avolasca,alessandria,423.0,44.80296911,8.96523824,33505.125,1694910.3125,623.8125,13.59125,3816.976340420957,397170.676324712,196.27805404578473,0.46121397781651574
351,Azeglio,torino,275.0,45.4248619,7.9947707,18967.5,1075820.1875,951.5749999999998,15.0475,2572.9419736947048,164744.96700302928,230.23461512118456,0.4558289152741407
352,Azzanello,cremona,59.5,45.31311906,9.91970439,8995.125,532520.75,736.9562500000001,14.843124999999999,1972.3539193900606,142862.93958733085,248.9312059418559,0.6920473851791755
353,Azzano Decimo,pordenone,12.5,45.88124317,12.71413134,2370.4375,112265.25,1342.5187500000002,14.229999999999999,968.3680408295183,51438.24145581444,327.45429038518745,0.4063003814913297
354,Azzano Mella,brescia,95.0,45.45482356,10.11359436,6047.4375,354048.75,957.6749999999998,15.284375,1029.971453892453,74817.50704258107,228.0788854760563,0.48583905085257684
355,Azzano San Paolo,bergamo,223.0,45.66191569,9.67632432,4083.25,226830.0,1129.1125000000002,14.084999999999999,467.63183524363853,33453.5271802541,304.6219862386824,0.5853318147284783
356,Azzano d'Asti,asti,159.0,44.87469786,8.26765893,8971.375,420890.6875,699.9874999999998,13.439999999999998,1079.425518505099,111863.49586987332,207.8018988524086,0.5079895012038472
357,Azzate,varese,326.0,45.78197525,8.79686119,522.375,27158.1875,1608.8749999999998,13.443750000000001,147.05730175683215,7335.348828049465,389.78763363315323,0.4697499334752481
358,Azzio,varese,346.5,45.88536153,8.70629682,522.375,27158.1875,1608.8749999999998,13.443750000000001,147.05730175683215,7335.348828049465,389.78763363315323,0.4697499334752481
359,Azzone,bergamo,1545.5,45.97902681,10.11281471,4083.25,226830.0,1129.1125000000002,14.084999999999999,467.63183524363853,33453.5271802541,304.6219862386824,0.5853318147284783
360,Badesi,sassari,330.0,40.96777523,8.87914774,2458.3125,102384.125,653.6249999999999,15.894375000000002,2247.680366325841,94906.06547098732,156.89012503447546,0.5901973539983606
361,Badia Calavena,verona,668.0,45.56389465,11.156357,15129.3125,939398.75,788.2687500000001,14.358749999999999,1565.6389417210253,172397.40928003142,223.46362483634778,0.4852748362182674
362,Badia Pavese,pavia,55.5,45.12117417,9.468549,11527.0625,614800.0,691.7624999999999,14.20375,1762.7015428502539,115834.0484198551,218.8631989013533,0.4044564253414697
363,Badia Polesine,rovigo,11.0,45.09431007,11.49137703,24455.5625,1599336.75,667.4187499999999,14.273125,2987.9694770585156,175797.58714024874,155.69555856970786,0.3895590455887267
364,Badia Tedalda,arezzo,905.0,43.70640891,12.18557888,4984.5,163910.25,760.0625,14.5875,1958.8639564808984,71860.28047769736,215.82549393742468,0.3112876483254679
365,Badolato,catanzaro,617.0,38.56828186,16.52589516,1563.375,49437.1875,1069.475,17.23,449.8331357292391,15577.148481964428,256.23268461823267,0.23174698847378117
366,Bagnaria,pavia,506.5,44.82607599,9.12433895,11527.0625,614800.0,691.7624999999999,14.20375,1762.7015428502539,115834.0484198551,218.8631989013533,0.4044564253414697
367,Bagnaria Arsa,udine,13.0,45.8874056,13.30170021,6895.75,342537.625,1355.8625000000002,14.64,2415.4215229092692,162604.4426141242,332.74025680701754,0.5777311947033271
368,Bagnasco,cuneo,829.0,44.30207165,8.04258299,19170.1875,996373.9375,978.53125,13.02875,3783.97012353868,127107.35098148005,238.41430247575332,0.4869069041750523
369,Bagnatica,bergamo,277.0,45.66367408,9.78137877,4083.25,226830.0,1129.1125000000002,14.084999999999999,467.63183524363853,33453.5271802541,304.6219862386824,0.5853318147284783
370,Bagni di Lucca,lucca,1010.0,44.01054783,10.59120328,261.25,10783.1875,1444.1625000000001,15.723749999999999,114.607445947751,4604.1468875894925,373.70245717682945,0.4035653602577901
371,Bagno a Ripoli,firenze,327.5,43.75141731,11.3193908,3288.25,109340.5625,767.6125,16.465625,1081.5453450194925,40582.15292131711,172.29494430578433,0.4062998687340829
372,Bagnoli Irpino,avellino,1155.0,40.83266201,15.06982281,4778.25,161751.8125,1205.975,15.466875,829.189765172404,50037.742893698094,260.2490486694108,0.3203689279565049
373,Bagnoli del Trigno,isernia,563.0,41.7046171,14.45823459,829.5625,26612.0,1035.1000000000001,13.091249999999999,395.4730448041518,13550.643497635085,210.77672230743758,0.7082172453892002
374,Bagnoli di Sopra,padova,4.5,45.18515279,11.88137227,18797.3125,1238952.0625,922.2375,14.874375,3957.7717420917543,271951.5867055431,272.8838797608487,0.40551150826250687
375,Bagnolo Cremasco,cremona,76.0,45.36153682,9.60916312,8995.125,532520.75,736.9562500000001,14.843124999999999,1972.3539193900606,142862.93958733085,248.9312059418559,0.6920473851791755
376,Bagnolo Mella,brescia,88.5,45.42902132,10.17928028,6047.4375,354048.75,957.6749999999998,15.284375,1029.971453892453,74817.50704258107,228.0788854760563,0.48583905085257684
377,Bagnolo Piemonte,cuneo,1507.0,44.7599027,7.31548217,19170.1875,996373.9375,978.53125,13.02875,3783.97012353868,127107.35098148005,238.41430247575332,0.4869069041750523
378,Bagnolo San Vito,mantova,18.0,45.09248928,10.88141283,18129.0,1080452.5625,613.8375,15.516875,2010.4485734946484,147895.17723710887,189.6262600485492,0.7235350141262457
379,Bagnolo di Po,rovigo,9.5,45.01516346,11.49996488,24455.5625,1599336.75,667.4187499999999,14.273125,2987.9694770585156,175797.58714024874,155.69555856970786,0.3895590455887267
380,Bagnolo in Piano,reggio nell'emilia,28.5,44.76142985,10.67290388,10203.3125,620565.5,696.7875,15.265625,879.4480631812962,57061.80827839229,168.99244509740663,0.5238825409065151
381,Bagnoregio,viterbo,374.5,42.62607501,12.09850331,2724.375,105737.5,791.825,16.31125,641.903094970988,27725.863376998743,221.44243044186453,0.3910818328687727
382,Bagolino,brescia,1461.0,45.82122915,10.46893818,6047.4375,354048.75,957.6749999999998,15.284375,1029.971453892453,74817.50704258107,228.0788854760563,0.48583905085257684
383,Baia e Latina,caserta,254.0,41.3005341,14.25034037,2187.3125,78073.8125,1065.25,16.639687500000004,294.8526680112176,12796.905304115528,192.76855206870925,0.6354013659359996
384,Baiano,avellino,490.0,40.95141659,14.61712905,4778.25,161751.8125,1205.975,15.466875,829.189765172404,50037.742893698094,260.2490486694108,0.3203689279565049
385,Bairo,torino,361.5,45.38624929,7.75691809,18967.5,1075820.1875,951.5749999999998,15.0475,2572.9419736947048,164744.96700302928,230.23461512118456,0.4558289152741407
386,Baiso,reggio nell'emilia,512.5,44.49525048,10.59879329,10203.3125,620565.5,696.7875,15.265625,879.4480631812962,57061.80827839229,168.99244509740663,0.5238825409065151
387,Balangero,torino,626.0,45.27003001,7.51930957,18967.5,1075820.1875,951.5749999999998,15.0475,2572.9419736947048,164744.96700302928,230.23461512118456,0.4558289152741407
388,Baldichieri d'Asti,asti,180.5,44.90699703,8.09110376,8971.375,420890.6875,699.9874999999998,13.439999999999998,1079.425518505099,111863.49586987332,207.8018988524086,0.5079895012038472
389,Baldissero Canavese,torino,446.0,45.40840358,7.74444451,18967.5,1075820.1875,951.5749999999998,15.0475,2572.9419736947048,164744.96700302928,230.23461512118456,0.4558289152741407
390,Baldissero Torinese,torino,489.0,45.06842334,7.81780767,18967.5,1075820.1875,951.5749999999998,15.0475,2572.9419736947048,164744.96700302928,230.23461512118456,0.4558289152741407
391,Baldissero d'Alba,cuneo,325.5,44.758713,7.91574918,19170.1875,996373.9375,978.53125,13.02875,3783.97012353868,127107.35098148005,238.41430247575332,0.4869069041750523
392,Balestrino,savona,426.0,44.12489729,8.17458666,167.125,4486.0625,953.8000000000001,16.673750000000002,50.7357533369385,1428.4520511728772,341.41853103388127,0.6410083202788142
393,Ballabio,lecco,1336.5,45.89603656,9.42416753,359.375,18240.8125,1323.0625000000002,15.040625,71.88034038131242,3711.8601665247757,298.0390284845259,0.4564569165503649
394,Balme,torino,2474.0,45.30229406,7.21831414,18967.5,1075820.1875,951.5749999999998,15.0475,2572.9419736947048,164744.96700302928,230.23461512118456,0.4558289152741407
395,Balmuccia,vercelli,1091.5,45.81834722,8.13825637,1540.5,81477.1875,826.43125,13.579999999999998,276.7065834658318,15051.54649958491,243.22100709368559,0.4360428113538087
396,Balocco,vercelli,177.0,45.45553463,8.28103358,1540.5,81477.1875,826.43125,13.579999999999998,276.7065834658318,15051.54649958491,243.22100709368559,0.4360428113538087
397,Balsorano,l'aquila,1146.5,41.80361236,13.56334801,2152.25,82311.875,627.6375,12.88125,573.0578213990859,21152.881984495638,163.03043836453773,0.28446147952461626
398,Balvano,potenza,732.0,40.65124604,15.5120599,5191.75,130815.6875,748.2312499999999,13.649999999999999,829.9411625731867,24654.08772791712,184.8539016583998,0.4445372125405621
399,Balzola,alessandria,117.5,45.18319612,8.40254698,33505.125,1694910.3125,623.8125,13.59125,3816.976340420957,397170.676324712,196.27805404578473,0.46121397781651574
400,Banari,sassari,375.5,40.57197633,8.69753059,2458.3125,102384.125,653.6249999999999,15.894375000000002,2247.680366325841,94906.06547098732,156.89012503447546,0.5901973539983606
401,Banchette,torino,256.0,45.4608501,7.85656384,18967.5,1075820.1875,951.5749999999998,15.0475,2572.9419736947048,164744.96700302928,230.23461512118456,0.4558289152741407
402,Banzi,potenza,478.5,40.86033582,16.01328897,5191.75,130815.6875,748.2312499999999,13.649999999999999,829.9411625731867,24654.08772791712,184.8539016583998,0.4445372125405621
403,Baone,padova,207.0,45.24424772,11.68844419,18797.3125,1238952.0625,922.2375,14.874375,3957.7717420917543,271951.5867055431,272.8838797608487,0.40551150826250687
404,Baradili,oristano,213.0,39.72251033,8.89760286,2500.125,103576.6875,575.68125,17.361875,2202.084644906579,93583.94608529731,158.35728051361158,1.0104600849777947
405,Baragiano,potenza,589.5,40.67956537,15.59420625,5191.75,130815.6875,748.2312499999999,13.649999999999999,829.9411625731867,24654.08772791712,184.8539016583998,0.4445372125405621
406,Baranello,campobasso,707.0,41.52681952,14.56051884,2274.0,55048.125,801.4862500000002,13.466249999999999,952.8827839771269,41666.16920536372,175.5785707074376,0.3402327634625055
407,Baranzate,milano,145.0,45.52729576,9.11386757,5776.1875,322345.875,819.7375000000001,15.768125000000001,2442.1657934096115,132770.57721843597,245.4266241330254,0.8747968811863321
408,Barasso,varese,761.5,45.84046799,8.75810385,522.375,27158.1875,1608.8749999999998,13.443750000000001,147.05730175683215,7335.348828049465,389.78763363315323,0.4697499334752481
409,Baratili San Pietro,oristano,6.0,39.99330353,8.55496644,2500.125,103576.6875,575.68125,17.361875,2202.084644906579,93583.94608529731,158.35728051361158,1.0104600849777947
410,Barbania,torino,356.5,45.2905002,7.63051093,18967.5,1075820.1875,951.5749999999998,15.0475,2572.9419736947048,164744.96700302928,230.23461512118456,0.4558289152741407
411,Barbara,ancona,155.5,43.58080064,13.02473927,1177.875,43679.8125,727.2375000000001,16.845000000000002,996.0398168078757,37067.368837867354,136.93934849657592,0.6926374713128551
412,Barbarano Romano,viterbo,368.5,42.25224905,12.06596285,2724.375,105737.5,791.825,16.31125,641.903094970988,27725.863376998743,221.44243044186453,0.3910818328687727
413,Barbaresco,cuneo,233.5,44.72554836,8.08046453,19170.1875,996373.9375,978.53125,13.02875,3783.97012353868,127107.35098148005,238.41430247575332,0.4869069041750523
414,Barbariga,brescia,81.5,45.40397218,10.05674386,6047.4375,354048.75,957.6749999999998,15.284375,1029.971453892453,74817.50704258107,228.0788854760563,0.48583905085257684
415,Barbata,bergamo,100.0,45.47490603,9.77623374,4083.25,226830.0,1129.1125000000002,14.084999999999999,467.63183524363853,33453.5271802541,304.6219862386824,0.5853318147284783
416,Barberino di Mugello,firenze,643.5,44.00043999,11.23857988,3288.25,109340.5625,767.6125,16.465625,1081.5453450194925,40582.15292131711,172.29494430578433,0.4062998687340829
417,Barbianello,pavia,67.5,45.07570319,9.20599733,11527.0625,614800.0,691.7624999999999,14.20375,1762.7015428502539,115834.0484198551,218.8631989013533,0.4044564253414697
418,Barbona,padova,11.0,45.10656219,11.66057999,18797.3125,1238952.0625,922.2375,14.874375,3957.7717420917543,271951.5867055431,272.8838797608487,0.40551150826250687
419,Barcellona Pozzo di Gotto,messina,590.0,38.14692512,15.21857534,121.5625,2655.9375,842.9125,19.570624999999996,23.644502532301242,798.5804462711736,172.99818447987636,0.38606508518642296
420,Barcis,pordenone,1262.5,46.1908595,12.56001555,2370.4375,112265.25,1342.5187500000002,14.229999999999999,968.3680408295183,51438.24145581444,327.45429038518745,0.4063003814913297
421,Bardi,parma,967.5,44.63281298,9.73199489,13351.3125,756325.3125,728.19375,15.3275,2498.754802396586,109179.24627981806,183.02263783022397,0.521606492802125
422,Bardineto,savona,1037.0,44.19209639,8.12938875,167.125,4486.0625,953.8000000000001,16.673750000000002,50.7357533369385,1428.4520511728772,341.41853103388127,0.6410083202788142
423,Bardolino,verona,189.5,45.54709416,10.71966767,15129.3125,939398.75,788.2687500000001,14.358749999999999,1565.6389417210253,172397.40928003142,223.46362483634778,0.4852748362182674
424,Bardonecchia,torino,2333.0,45.07816901,6.70382393,18967.5,1075820.1875,951.5749999999998,15.0475,2572.9419736947048,164744.96700302928,230.23461512118456,0.4558289152741407
425,Bareggio,milano,140.0,45.47645894,8.99381888,5776.1875,322345.875,819.7375000000001,15.768125000000001,2442.1657934096115,132770.57721843597,245.4266241330254,0.8747968811863321
426,Barengo,novara,229.0,45.574775,8.51201322,1731.3125,86312.4375,884.225,14.478124999999995,674.0412172115293,28011.521132012214,296.42364165722904,0.4883198234763771
427,Baressa,oristano,233.0,39.71468132,8.87404906,2500.125,103576.6875,575.68125,17.361875,2202.084644906579,93583.94608529731,158.35728051361158,1.0104600849777947
428,Barete,l'aquila,1113.5,42.45096144,13.28126973,2152.25,82311.875,627.6375,12.88125,573.0578213990859,21152.881984495638,163.03043836453773,0.28446147952461626
429,Barga,lucca,1040.0,44.0730479,10.48477616,261.25,10783.1875,1444.1625000000001,15.723749999999999,114.607445947751,4604.1468875894925,373.70245717682945,0.4035653602577901
430,Bargagli,genova,568.5,44.44464301,9.0883387,244.5,9883.25,1075.611875,16.669375000000002,914.8508803806953,39137.82723913018,376.94349140101,0.4808945657140789
431,Barge,cuneo,1261.0,44.72522006,7.32339364,19170.1875,996373.9375,978.53125,13.02875,3783.97012353868,127107.35098148005,238.41430247575332,0.4869069041750523
432,Barghe,brescia,487.0,45.67799548,10.40612722,6047.4375,354048.75,957.6749999999998,15.284375,1029.971453892453,74817.50704258107,228.0788854760563,0.48583905085257684
433,Bari,bari,65.0,41.12559562,16.86737016,4028.0,99657.0,581.85,17.469374999999996,1957.8944132238933,46157.1067550816,140.06418528660353,0.307125788562276
434,Bari Sardo,nuoro,139.0,39.84012545,9.64580126,2764.8125,115427.25,769.0343750000001,15.015937500000001,2253.2880336299663,94895.92315900617,174.50872062139663,0.4144040650942835
435,Bariano,bergamo,116.0,45.51477813,9.70701505,4083.25,226830.0,1129.1125000000002,14.084999999999999,467.63183524363853,33453.5271802541,304.6219862386824,0.5853318147284783
436,Baricella,bologna,9.0,44.64706061,11.53455005,27838.4375,1808144.8125,726.9593749999999,15.567500000000003,3848.1809203613752,234120.8374807673,158.77762249841757,0.6437753231265292
437,Barile,potenza,621.0,40.94608063,15.67273006,5191.75,130815.6875,748.2312499999999,13.649999999999999,829.9411625731867,24654.08772791712,184.8539016583998,0.4445372125405621
438,Barisciano,l'aquila,1262.5,42.32702005,13.59077801,2152.25,82311.875,627.6375,12.88125,573.0578213990859,21152.881984495638,163.03043836453773,0.28446147952461626
439,Barni,como,940.5,45.91087559,9.26396688,507.5,25630.3125,1352.0,15.109374999999996,90.6686274297786,4408.477994633371,367.41662455583037,0.422081646919961
440,Barolo,cuneo,346.5,44.60988256,7.94180811,19170.1875,996373.9375,978.53125,13.02875,3783.97012353868,127107.35098148005,238.41430247575332,0.4869069041750523
441,Barone Canavese,torino,338.5,45.32772558,7.87055626,18967.5,1075820.1875,951.5749999999998,15.0475,2572.9419736947048,164744.96700302928,230.23461512118456,0.4558289152741407
442,Baronissi,salerno,541.0,40.74643066,14.77021449,3410.75,112994.5625,1083.46875,17.98875,825.9487877586602,26821.94106564935,262.93953606295116,1.320655771450936
443,Barrea,l'aquila,1589.0,41.75758413,13.99152867,2152.25,82311.875,627.6375,12.88125,573.0578213990859,21152.881984495638,163.03043836453773,0.28446147952461626
444,Barzago,lecco,325.0,45.7552173,9.31649287,359.375,18240.8125,1323.0625000000002,15.040625,71.88034038131242,3711.8601665247757,298.0390284845259,0.4564569165503649
445,Barzana,bergamo,312.0,45.73364503,9.56703564,4083.25,226830.0,1129.1125000000002,14.084999999999999,467.63183524363853,33453.5271802541,304.6219862386824,0.5853318147284783
446,Barzanò,lecco,413.0,45.73463917,9.31677649,359.375,18240.8125,1323.0625000000002,15.040625,71.88034038131242,3711.8601665247757,298.0390284845259,0.4564569165503649
447,Barzio,lecco,1367.5,45.94646921,9.46834431,359.375,18240.8125,1323.0625000000002,15.040625,71.88034038131242,3711.8601665247757,298.0390284845259,0.4564569165503649
448,Basaluzzo,alessandria,160.0,44.76829415,8.70593403,33505.125,1694910.3125,623.8125,13.59125,3816.976340420957,397170.676324712,196.27805404578473,0.46121397781651574
449,Bascapè,pavia,84.5,45.30464405,9.31542149,11527.0625,614800.0,691.7624999999999,14.20375,1762.7015428502539,115834.0484198551,218.8631989013533,0.4044564253414697
450,Baschi,terni,478.0,42.67013123,12.2162764,5475.4375,230072.6875,808.4749999999999,16.520625,655.1655229787355,39828.65075916875,170.19131000142164,0.26799175982356976
451,Basciano,teramo,356.0,42.59570914,13.73863139,16274.0625,710729.875,813.00625,16.007499999999997,2730.2119690297554,134201.09125332528,168.71606313073252,1.1387507775335806
452,Baselga di Pinè,trento,1569.5,46.12998915,11.2445269,2774.625,115916.0625,1024.8025000000002,13.4025,2240.5244884475896,94263.90630527235,277.2811755721377,0.4346262762420139
453,Baselice,benevento,641.0,41.39742456,14.97257424,5670.9375,207164.125,733.7375,15.363125000000002,1063.0180599751513,44366.52122471778,162.90271483311753,0.33143563980557833
454,Basiano,milano,169.0,45.57442098,9.46820192,5776.1875,322345.875,819.7375000000001,15.768125000000001,2442.1657934096115,132770.57721843597,245.4266241330254,0.8747968811863321
455,Basicò,messina,446.5,38.06159926,15.06175499,121.5625,2655.9375,842.9125,19.570624999999996,23.644502532301242,798.5804462711736,172.99818447987636,0.38606508518642296
456,Basiglio,milano,97.0,45.36271707,9.1614742,5776.1875,322345.875,819.7375000000001,15.768125000000001,2442.1657934096115,132770.57721843597,245.4266241330254,0.8747968811863321
457,Basiliano,udine,76.0,46.0161983,13.1066967,6895.75,342537.625,1355.8625000000002,14.64,2415.4215229092692,162604.4426141242,332.74025680701754,0.5777311947033271
458,Bassano Bresciano,brescia,63.0,45.33019122,10.12684596,6047.4375,354048.75,957.6749999999998,15.284375,1029.971453892453,74817.50704258107,228.0788854760563,0.48583905085257684
459,Bassano Romano,viterbo,443.0,42.21828248,12.19265891,2724.375,105737.5,791.825,16.31125,641.903094970988,27725.863376998743,221.44243044186453,0.3910818328687727
460,Bassano del Grappa,vicenza,667.0,45.76713634,11.73417428,6031.375,381593.625,1063.0425,14.080625,1610.3463343848327,112385.5681582382,348.58196563601314,0.6200050403020921
461,Bassano in Teverina,viterbo,198.0,42.46308252,12.30840046,2724.375,105737.5,791.825,16.31125,641.903094970988,27725.863376998743,221.44243044186453,0.3910818328687727
462,Bassiano,latina,609.5,41.54933965,13.03225445,1869.375,75510.625,846.1375,17.835625,358.37538512942916,17230.672445283923,229.24984878221113,0.4466910752037327
463,Bassignana,alessandria,140.0,45.00321277,8.73594306,33505.125,1694910.3125,623.8125,13.59125,3816.976340420957,397170.676324712,196.27805404578473,0.46121397781651574
464,Bastia Mondovì,cuneo,409.0,44.44138607,7.89332172,19170.1875,996373.9375,978.53125,13.02875,3783.97012353868,127107.35098148005,238.41430247575332,0.4869069041750523
465,Bastia Umbra,perugia,206.5,43.06650647,12.5492598,41301.75,2628701.875,844.2124999999999,15.360625,19967.82542825666,1419913.9117764323,236.92734716223308,0.41040579511827824
466,Bastida Pancarana,pavia,65.5,45.08630345,9.0915536,11527.0625,614800.0,691.7624999999999,14.20375,1762.7015428502539,115834.0484198551,218.8631989013533,0.4044564253414697
467,Bastiglia,modena,28.0,44.72644995,10.99981167,19929.5,1328205.375,612.9999999999999,15.10125,1342.9620496003106,142399.49516384062,156.14188419511274,0.4797481978427151
468,Battaglia Terme,padova,122.0,45.28889131,11.77375044,18797.3125,1238952.0625,922.2375,14.874375,3957.7717420917543,271951.5867055431,272.8838797608487,0.40551150826250687
469,Battifollo,cuneo,829.0,44.31917111,8.00948124,19170.1875,996373.9375,978.53125,13.02875,3783.97012353868,127107.35098148005,238.41430247575332,0.4869069041750523
470,Battipaglia,salerno,206.0,40.60767715,14.98344118,3410.75,112994.5625,1083.46875,17.98875,825.9487877586602,26821.94106564935,262.93953606295116,1.320655771450936
471,Battuda,pavia,93.5,45.27357591,9.07740762,11527.0625,614800.0,691.7624999999999,14.20375,1762.7015428502539,115834.0484198551,218.8631989013533,0.4044564253414697
472,Bauladu,oristano,110.5,40.01968427,8.67136806,2500.125,103576.6875,575.68125,17.361875,2202.084644906579,93583.94608529731,158.35728051361158,1.0104600849777947
473,Baunei,nuoro,512.0,40.03178146,9.66358993,2764.8125,115427.25,769.0343750000001,15.015937500000001,2253.2880336299663,94895.92315900617,174.50872062139663,0.4144040650942835
474,Bedero Valcuvia,varese,603.5,45.91263579,8.79441299,522.375,27158.1875,1608.8749999999998,13.443750000000001,147.05730175683215,7335.348828049465,389.78763363315323,0.4697499334752481
475,Bedizzole,brescia,173.5,45.51035884,10.42277837,6047.4375,354048.75,957.6749999999998,15.284375,1029.971453892453,74817.50704258107,228.0788854760563,0.48583905085257684
476,Bedollo,trento,1606.0,46.16142431,11.30321802,2774.625,115916.0625,1024.8025000000002,13.4025,2240.5244884475896,94263.90630527235,277.2811755721377,0.4346262762420139
477,Bedonia,parma,1109.5,44.50349971,9.63131421,13351.3125,756325.3125,728.19375,15.3275,2498.754802396586,109179.24627981806,183.02263783022397,0.521606492802125
478,Bedulita,bergamo,685.0,45.79064007,9.55092365,4083.25,226830.0,1129.1125000000002,14.084999999999999,467.63183524363853,33453.5271802541,304.6219862386824,0.5853318147284783
479,Beinasco,torino,253.5,45.02207899,7.57915804,18967.5,1075820.1875,951.5749999999998,15.0475,2572.9419736947048,164744.96700302928,230.23461512118456,0.4558289152741407
480,Beinette,cuneo,496.5,44.36566802,7.64570648,19170.1875,996373.9375,978.53125,13.02875,3783.97012353868,127107.35098148005,238.41430247575332,0.4869069041750523
481,Belcastro,catanzaro,472.0,39.01740669,16.78755057,1563.375,49437.1875,1069.475,17.23,449.8331357292391,15577.148481964428,256.23268461823267,0.23174698847378117
482,Belfiore,verona,26.0,45.38036769,11.20842171,15129.3125,939398.75,788.2687500000001,14.358749999999999,1565.6389417210253,172397.40928003142,223.46362483634778,0.4852748362182674
483,Belforte Monferrato,alessandria,406.0,44.62436936,8.66160356,33505.125,1694910.3125,623.8125,13.59125,3816.976340420957,397170.676324712,196.27805404578473,0.46121397781651574
484,Belforte del Chienti,macerata,364.5,43.16425472,13.23772508,5795.5,262254.8125,875.9393749999999,15.816250000000002,4672.752507890827,163460.48402155947,176.26257044416244,0.4146625133768426
485,Belgioioso,pavia,66.5,45.16273674,9.31602643,11527.0625,614800.0,691.7624999999999,14.20375,1762.7015428502539,115834.0484198551,218.8631989013533,0.4044564253414697
486,Bella,potenza,865.5,40.75859333,15.53778824,5191.75,130815.6875,748.2312499999999,13.649999999999999,829.9411625731867,24654.08772791712,184.8539016583998,0.4445372125405621
487,Bellagio,como,936.0,45.9627,9.2459,507.5,25630.3125,1352.0,15.109374999999996,90.6686274297786,4408.477994633371,367.41662455583037,0.422081646919961
488,Bellano,lecco,498.5,46.04329184,9.30276896,359.375,18240.8125,1323.0625000000002,15.040625,71.88034038131242,3711.8601665247757,298.0390284845259,0.4564569165503649
489,Bellante,teramo,227.0,42.74460127,13.80535903,16274.0625,710729.875,813.00625,16.007499999999997,2730.2119690297554,134201.09125332528,168.71606313073252,1.1387507775335806
490,Bellaria-Igea Marina,rimini,8.0,44.14760173,12.45805808,4436.6875,219753.4375,668.5,15.0425,920.1131610658914,52909.291486428294,190.49235855190275,0.3855126457069853
491,Bellegra,roma,535.5,41.88107829,13.02804743,1694.8125,56850.9375,768.801875,17.31625,700.9676377456142,30369.584796785857,200.28264828216317,0.7519297396255384
492,Bellino,cuneo,2361.5,44.58060554,7.01716043,19170.1875,996373.9375,978.53125,13.02875,3783.97012353868,127107.35098148005,238.41430247575332,0.4869069041750523
493,Bellinzago Lombardo,milano,130.0,45.54083028,9.44597053,5776.1875,322345.875,819.7375000000001,15.768125000000001,2442.1657934096115,132770.57721843597,245.4266241330254,0.8747968811863321
494,Bellinzago Novarese,novara,185.0,45.57030363,8.63973111,1731.3125,86312.4375,884.225,14.478124999999995,674.0412172115293,28011.521132012214,296.42364165722904,0.4883198234763771
495,Bellizzi,salerno,71.5,40.62218574,14.94602767,3410.75,112994.5625,1083.46875,17.98875,825.9487877586602,26821.94106564935,262.93953606295116,1.320655771450936
496,Bellona,caserta,191.0,41.16032848,14.22849069,2187.3125,78073.8125,1065.25,16.639687500000004,294.8526680112176,12796.905304115528,192.76855206870925,0.6354013659359996
497,Bellosguardo,salerno,427.5,40.42181689,15.31021488,3410.75,112994.5625,1083.46875,17.98875,825.9487877586602,26821.94106564935,262.93953606295116,1.320655771450936
498,Belluno,belluno,1407.5,46.13837528,12.21704167,37.8125,1771.0625,1563.2375000000002,11.48,36.47139289909284,1650.0640176974953,340.421105642213,0.5144446844251908
499,Belmonte Calabro,cosenza,679.0,39.16056055,16.07789547,7281.625,197788.75,1019.0874999999999,16.216875,2362.3275492615326,55901.76123582035,257.9193772609314,0.21632440916364526
500,Belmonte Castello,frosinone,656.5,41.57825599,13.81174168,5194.9375,160043.5,1130.0625,15.23125,888.960101748104,36233.527709383554,282.08924326650003,0.4147268177165945
501,Belmonte Piceno,fermo,222.5,43.09152184,13.53882338,3533.4375,166757.9375,737.8375000000001,15.015937500000001,586.4204372007057,30652.437989973434,144.5071664889553,0.4144040650942835
502,Belmonte del Sannio,isernia,875.0,41.82509574,14.42348554,829.5625,26612.0,1035.1000000000001,13.091249999999999,395.4730448041518,13550.643497635085,210.77672230743758,0.7082172453892002
503,Belmonte in Sabina,rieti,599.0,42.31825684,12.89269099,2973.375,126081.25,995.86875,13.835624999999997,1148.9059651105772,37161.537979475506,233.51380749683017,0.32653675137723814
504,Belpasso,catania,1664.0,37.59138844,14.97704833,763.8125,22501.875,723.6500000000001,19.65,847.7495085027573,37079.263606271,216.17983254688676,0.8790676879512737
505,Belsito,cosenza,521.0,39.17401078,16.28794816,7281.625,197788.75,1019.0874999999999,16.216875,2362.3275492615326,55901.76123582035,257.9193772609314,0.21632440916364526
506,Belvedere Langhe,cuneo,528.0,44.49456526,7.97416757,19170.1875,996373.9375,978.53125,13.02875,3783.97012353868,127107.35098148005,238.41430247575332,0.4869069041750523
507,Belvedere Marittimo,cosenza,876.5,39.61804375,15.8613154,7281.625,197788.75,1019.0874999999999,16.216875,2362.3275492615326,55901.76123582035,257.9193772609314,0.21632440916364526
508,Belvedere Ostrense,ancona,161.5,43.58043733,13.16682409,1177.875,43679.8125,727.2375000000001,16.845000000000002,996.0398168078757,37067.368837867354,136.93934849657592,0.6926374713128551
509,Belvedere di Spinello,crotone,287.5,39.21368354,16.88684476,238.625,10094.5625,652.3125,18.03875,916.379315567522,39081.90366221303,178.2928373023811,0.7936151460248225
510,Belveglio,asti,189.0,44.83048705,8.33010424,8971.375,420890.6875,699.9874999999998,13.439999999999998,1079.425518505099,111863.49586987332,207.8018988524086,0.5079895012038472
511,Belvì,nuoro,722.5,39.96179317,9.18408371,2764.8125,115427.25,769.0343750000001,15.015937500000001,2253.2880336299663,94895.92315900617,174.50872062139663,0.4144040650942835
512,Bema,sondrio,1262.5,46.10831825,9.56456455,1850.875,81744.0625,999.2875,12.668749999999998,2197.994172725063,98099.43708602936,204.0056629115967,0.8827825326772158
513,Bene Lario,como,982.5,46.0286252,9.18360351,507.5,25630.3125,1352.0,15.109374999999996,90.6686274297786,4408.477994633371,367.41662455583037,0.422081646919961
514,Bene Vagienna,cuneo,335.5,44.54523956,7.83282512,19170.1875,996373.9375,978.53125,13.02875,3783.97012353868,127107.35098148005,238.41430247575332,0.4869069041750523
515,Benetutti,sassari,488.5,40.45579466,9.16828273,2458.3125,102384.125,653.6249999999999,15.894375000000002,2247.680366325841,94906.06547098732,156.89012503447546,0.5901973539983606
516,Benevello,cuneo,538.5,44.62818908,8.10591872,19170.1875,996373.9375,978.53125,13.02875,3783.97012353868,127107.35098148005,238.41430247575332,0.4869069041750523
517,Benevento,benevento,295.5,41.12969986,14.7815172,5670.9375,207164.125,733.7375,15.363125000000002,1063.0180599751513,44366.52122471778,162.90271483311753,0.33143563980557833
518,Benna,biella,278.5,45.51239521,8.12515045,270.5625,12517.9375,1291.4125,14.43375,107.79361066408342,5302.625028778987,304.06637405891064,0.4746630383756456
519,Bentivoglio,bologna,18.0,44.63514888,11.41786388,27838.4375,1808144.8125,726.9593749999999,15.567500000000003,3848.1809203613752,234120.8374807673,158.77762249841757,0.6437753231265292
520,Berbenno,bergamo,618.5,45.81171214,9.56832347,4083.25,226830.0,1129.1125000000002,14.084999999999999,467.63183524363853,33453.5271802541,304.6219862386824,0.5853318147284783
521,Berbenno di Valtellina,sondrio,1685.0,46.16872282,9.74318959,1850.875,81744.0625,999.2875,12.668749999999998,2197.994172725063,98099.43708602936,204.0056629115967,0.8827825326772158
522,Berceto,parma,816.5,44.50952856,9.98940249,13351.3125,756325.3125,728.19375,15.3275,2498.754802396586,109179.24627981806,183.02263783022397,0.521606492802125
523,Berchidda,sassari,761.5,40.78635359,9.16400704,2458.3125,102384.125,653.6249999999999,15.894375000000002,2247.680366325841,94906.06547098732,156.89012503447546,0.5901973539983606
524,Beregazzo con Figliaro,como,415.0,45.77587949,8.9508768,507.5,25630.3125,1352.0,15.109374999999996,90.6686274297786,4408.477994633371,367.41662455583037,0.422081646919961
525,Bereguardo,pavia,83.5,45.25744652,9.02449546,11527.0625,614800.0,691.7624999999999,14.20375,1762.7015428502539,115834.0484198551,218.8631989013533,0.4044564253414697
526,Bergamasco,alessandria,148.0,44.82710536,8.45521038,33505.125,1694910.3125,623.8125,13.59125,3816.976340420957,397170.676324712,196.27805404578473,0.46121397781651574
527,Bergamo,bergamo,421.0,45.69441368,9.66842453,4083.25,226830.0,1129.1125000000002,14.084999999999999,467.63183524363853,33453.5271802541,304.6219862386824,0.5853318147284783
528,Bergantino,rovigo,14.0,45.06037885,11.25302072,24455.5625,1599336.75,667.4187499999999,14.273125,2987.9694770585156,175797.58714024874,155.69555856970786,0.3895590455887267
529,Bergeggi,savona,216.0,44.24906108,8.44410089,167.125,4486.0625,953.8000000000001,16.673750000000002,50.7357533369385,1428.4520511728772,341.41853103388127,0.6410083202788142
530,Bergolo,cuneo,469.0,44.54801177,8.18352587,19170.1875,996373.9375,978.53125,13.02875,3783.97012353868,127107.35098148005,238.41430247575332,0.4869069041750523
531,Berlingo,brescia,126.0,45.50276977,10.03295371,6047.4375,354048.75,957.6749999999998,15.284375,1029.971453892453,74817.50704258107,228.0788854760563,0.48583905085257684
532,Bernalda,matera,113.0,40.40817994,16.68637158,1494.4375,45672.625,604.9125,16.564375000000002,431.8425590806599,13946.850449115742,86.00545622226534,0.6058159098824221
533,Bernate Ticino,milano,133.5,45.47932974,8.81592589,5776.1875,322345.875,819.7375000000001,15.768125000000001,2442.1657934096115,132770.57721843597,245.4266241330254,0.8747968811863321
534,Bernezzo,cuneo,946.5,44.38860537,7.43531003,19170.1875,996373.9375,978.53125,13.02875,3783.97012353868,127107.35098148005,238.41430247575332,0.4869069041750523
535,Bertiolo,udine,31.0,45.94329723,13.0553148,6895.75,342537.625,1355.8625000000002,14.64,2415.4215229092692,162604.4426141242,332.74025680701754,0.5777311947033271
536,Bertonico,lodi,58.0,45.23388802,9.66860158,3285.9375,200190.0,745.2999999999998,13.848124999999998,744.9752093190752,59782.324282907124,258.7880780355489,0.4569933442257848
537,Berzano di San Pietro,asti,351.0,45.09490798,7.95404954,8971.375,420890.6875,699.9874999999998,13.439999999999998,1079.425518505099,111863.49586987332,207.8018988524086,0.5079895012038472
538,Berzano di Tortona,alessandria,299.5,44.87645689,8.95059588,33505.125,1694910.3125,623.8125,13.59125,3816.976340420957,397170.676324712,196.27805404578473,0.46121397781651574
539,Berzo Demo,brescia,1467.5,46.09287052,10.33300826,6047.4375,354048.75,957.6749999999998,15.284375,1029.971453892453,74817.50704258107,228.0788854760563,0.48583905085257684
540,Berzo Inferiore,brescia,1215.5,45.93225933,10.27867321,6047.4375,354048.75,957.6749999999998,15.284375,1029.971453892453,74817.50704258107,228.0788854760563,0.48583905085257684
541,Berzo San Fermo,bergamo,717.0,45.71817,9.90029675,4083.25,226830.0,1129.1125000000002,14.084999999999999,467.63183524363853,33453.5271802541,304.6219862386824,0.5853318147284783
542,Besano,varese,573.5,45.88923148,8.88994859,522.375,27158.1875,1608.8749999999998,13.443750000000001,147.05730175683215,7335.348828049465,389.78763363315323,0.4697499334752481
543,Besate,milano,90.5,45.31224654,8.96731763,5776.1875,322345.875,819.7375000000001,15.768125000000001,2442.1657934096115,132770.57721843597,245.4266241330254,0.8747968811863321
544,Besenello,trento,1176.0,45.94568733,11.10618753,2774.625,115916.0625,1024.8025000000002,13.4025,2240.5244884475896,94263.90630527235,277.2811755721377,0.4346262762420139
545,Besenzone,piacenza,50.5,44.98756521,9.95361533,19921.9375,1141744.1875,710.0500000000001,14.853124999999999,5087.55745544952,286383.4432873098,212.12154377463247,0.4621791680001741
546,Besnate,varese,302.0,45.70035494,8.76940011,522.375,27158.1875,1608.8749999999998,13.443750000000001,147.05730175683215,7335.348828049465,389.78763363315323,0.4697499334752481
547,Besozzo,varese,275.5,45.85161622,8.66515456,522.375,27158.1875,1608.8749999999998,13.443750000000001,147.05730175683215,7335.348828049465,389.78763363315323,0.4697499334752481
548,Bessude,sassari,482.5,40.5556799,8.72722075,2458.3125,102384.125,653.6249999999999,15.894375000000002,2247.680366325841,94906.06547098732,156.89012503447546,0.5901973539983606
549,Bettola,piacenza,772.0,44.77616157,9.60537884,19921.9375,1141744.1875,710.0500000000001,14.853124999999999,5087.55745544952,286383.4432873098,212.12154377463247,0.4621791680001741
550,Bettona,perugia,407.5,43.01296467,12.48493174,41301.75,2628701.875,844.2124999999999,15.360625,19967.82542825666,1419913.9117764323,236.92734716223308,0.41040579511827824
551,Bevagna,perugia,453.0,42.9339354,12.60912589,41301.75,2628701.875,844.2124999999999,15.360625,19967.82542825666,1419913.9117764323,236.92734716223308,0.41040579511827824
552,Beverino,la spezia,424.0,44.19406922,9.76927899,25.8125,976.25,1145.275,16.570625,19.964030154254928,687.9135120056882,335.1271987370368,0.3957182288784114
553,Bevilacqua,verona,15.0,45.23344659,11.39819298,15129.3125,939398.75,788.2687500000001,14.358749999999999,1565.6389417210253,172397.40928003142,223.46362483634778,0.4852748362182674
554,Biancavilla,catania,1711.5,37.64125641,14.86954107,763.8125,22501.875,723.6500000000001,19.65,847.7495085027573,37079.263606271,216.17983254688676,0.8790676879512737
555,Bianchi,cosenza,1078.0,39.10080642,16.41066245,7281.625,197788.75,1019.0874999999999,16.216875,2362.3275492615326,55901.76123582035,257.9193772609314,0.21632440916364526
556,Biandrate,novara,154.0,45.45378226,8.46370551,1731.3125,86312.4375,884.225,14.478124999999995,674.0412172115293,28011.521132012214,296.42364165722904,0.4883198234763771
557,Biandronno,varese,267.0,45.81939412,8.71232632,522.375,27158.1875,1608.8749999999998,13.443750000000001,147.05730175683215,7335.348828049465,389.78763363315323,0.4697499334752481
558,Bianzano,bergamo,748.0,45.7733787,9.91778785,4083.25,226830.0,1129.1125000000002,14.084999999999999,467.63183524363853,33453.5271802541,304.6219862386824,0.5853318147284783
559,Bianzone,sondrio,1394.0,46.18393421,10.10930218,1850.875,81744.0625,999.2875,12.668749999999998,2197.994172725063,98099.43708602936,204.0056629115967,0.8827825326772158
560,Bianzè,vercelli,180.5,45.30737818,8.12006412,1540.5,81477.1875,826.43125,13.579999999999998,276.7065834658318,15051.54649958491,243.22100709368559,0.4360428113538087
561,Bibbiano,reggio nell'emilia,114.5,44.66326108,10.47336979,10203.3125,620565.5,696.7875,15.265625,879.4480631812962,57061.80827839229,168.99244509740663,0.5238825409065151
562,Bibbiena,arezzo,846.0,43.69445741,11.81814145,4984.5,163910.25,760.0625,14.5875,1958.8639564808984,71860.28047769736,215.82549393742468,0.3112876483254679
563,Bibbona,livorno,275.0,43.2694391,10.59818454,1158.1875,41105.5625,983.9000000000001,16.375,300.4676840638052,14760.944021160481,262.60219851834194,0.6313477647065836
564,Bibiana,torino,776.5,44.79758015,7.28978596,18967.5,1075820.1875,951.5749999999998,15.0475,2572.9419736947048,164744.96700302928,230.23461512118456,0.4558289152741407
565,Biccari,foggia,654.5,41.39743603,15.19449634,2727.0625,88686.875,486.5999999999999,17.629375,1520.766713152722,53917.15332727301,70.78063765371617,0.30771130950941633
566,Bicinicco,udine,36.0,45.93099725,13.24990756,6895.75,342537.625,1355.8625000000002,14.64,2415.4215229092692,162604.4426141242,332.74025680701754,0.5777311947033271
567,Bidonì,oristano,219.0,40.11300422,8.9351206,2500.125,103576.6875,575.68125,17.361875,2202.084644906579,93583.94608529731,158.35728051361158,1.0104600849777947
568,Biella,biella,1342.5,45.5665112,8.05408217,270.5625,12517.9375,1291.4125,14.43375,107.79361066408342,5302.625028778987,304.06637405891064,0.4746630383756456
569,Bienno,brescia,1288.0,45.93555453,10.29546917,6047.4375,354048.75,957.6749999999998,15.284375,1029.971453892453,74817.50704258107,228.0788854760563,0.48583905085257684
570,Bieno,trento,1549.5,46.08024712,11.5536885,2774.625,115916.0625,1024.8025000000002,13.4025,2240.5244884475896,94263.90630527235,277.2811755721377,0.4346262762420139
571,Bientina,pisa,37.0,43.71011358,10.61983755,3150.125,115216.5625,944.3924999999999,16.300625000000004,1933.8897891727613,69463.84953721732,238.36980590390775,0.5458139945683574
572,Binago,como,387.0,45.78468601,8.92256563,507.5,25630.3125,1352.0,15.109374999999996,90.6686274297786,4408.477994633371,367.41662455583037,0.422081646919961
